id,tipo,situacao,data,hora,bairro,endereco,numero,complemento,natureza,descricao,auto,moto,ciclom,ciclista,pedestre,onibus,caminhao,viatura,outros,vitimas,latitude,longitude
0,SEM VÍTIMA,FINALIZADA,2016-01-01,00:58:00,IPUTINGA,AV JORNALISTA POSSIDONIO CAVALCANTI BASTOS,,PROX A PONTE DA SALVAÇAO,COLISÃO,COLISAO ENTRE UMA VIATUA E UM CAMINHAO S/V,1,,,,,,1,,,0,-8.030678,-34.9309437
1,SEM VÍTIMA,FINALIZADA,2016-01-01,01:23:00,BOA VIAGEM,AV ENGENHEIRO DOMINGOS FERREIRA,,EM FRENTE AO SUPERMERCADO EXTRANO SEMAFORO 380,COLISÃO,COLISAO ENTRE DOIS AUTO S/V,2,,,,,,,,,0,-8.1111171,-34.8927465
2,SEM VÍTIMA,CANCELADA,2016-01-01,01:42:00,JORDÃO,RUA DR ALVARO FERRAZ,20,PROX A PRAÇA DO JORDAO DE BAIXO,COLISÃO,COLISAO ENTRE DOIS AUTO S/V,2,,,,,,,,,0,-8.131565,-34.9379114
3,SEM VÍTIMA,FINALIZADA,2016-01-01,03:08:00,IBURA,AV JORNALISTA COSTA PORTO,1080,PROX A ASSEMBLEIA DE DEUS SENTIDO ALTO DOIS CARNEIROS,COLISÃO,COLISAO ENTRE DOIS CARROS S/V,2,,,,,,,,,0,-8.1104992,-34.9595738
4,COM VÍTIMA,CANCELADA,2016-01-01,05:34:00,PAISSANDU,AV GOVERNADOR AGAMENON MAGALHAES,,EM FRENTE AO EDFICIO EMPRESARIAL ISACK NILTON AV GOVERNADOR  AGAMENON MAGALHAES NO CRUZAMENTO COM A RUA DOTOR RURAIS DE FORA,CHOQUE,MOTO CHOCOU-SE CONTRA A CALÇADA COM VITIMA,,1,,,,,,,,1,-8.0630605,-34.8977617
5,COM VÍTIMA,FINALIZADA,2016-01-01,07:26:00,CABANGA,AV SUL,,NO SEMAFORO Nº260,COLISÃO,COL.C/VSET.CD,1,1,,,,,,,,1,-8.0768693,-34.8949696
6,SEM VÍTIMA,FINALIZADA,2016-01-01,07:29:00,BOA VIAGEM,AV ENGENHEIRO DOMINGOS FERREIRA,,E/F  FARMÁCIA DO TRABALHADOR NO LADO DIREITO DA VIA. (NO SEMÁFORO Nº 216),COLISÃO,SEM VÍTIMAS,1,,,,,1,,,,0,-8.1111171,-34.8927465
7,SEM VÍTIMA,CANCELADA,2016-01-01,09:31:00,CAJUEIRO,RUA CORONEL URBANO RIBEIRO DE SENA,11,RUA   DA RADIO CAPIBARIBE,COLISÃO,COLISÃO SEM VITIMA,1,1,,,,,,,,0,-8.0150982,-34.8900557
8,SEM VÍTIMA,FINALIZADA,2016-01-01,07:41:00,IMBIRIBEIRA,AV MARECHAL MASCARENHAS DE MORAES,,NO SEMAFORO Nº534 E EM FRENTE DA EUROVIA RENAULT,COLISÃO,COL.S/V SET/AEROPORTO,2,,,,,,,,,0,-8.1134632,-34.912731
9,COM VÍTIMA,FINALIZADA,2016-01-01,08:35:00,BOA VIAGEM,AV ENGENHEIRO DOMINGOS FERREIRA,,SEMAFORO 142CRUZAMENTO DA CLINICAL CENTER,COLISÃO,COLISÃO COM VITIMAAQUARDANDO SAMU,,1,,,,,,1,,1,-8.1111171,-34.8927465
10,SEM VÍTIMA,FINALIZADA,2016-01-01,10:00:00,CASA AMARELA,AV DR EURICO CHAVES,603,EM FRENTE A IGREJA BATISTA DO MONTEIRO,COLISÃO,COLISÃO SEM VÍTIMA,2,,,,,,,,,0,-8.0236871,-34.9256509
11,SEM VÍTIMA,FINALIZADA,2016-01-01,10:31:00,AFOGADOS,RUA SAO MIGUEL,293,E/F A SÃO MIGUEL AUTO PEÇAS AO DO BANCO DO BRASIL. SENTIDO SUBÚRBIO ( SEMÁFORO Nº333),COLISÃO,SEM VÍTIMAS,2,,,,,,,,,0,-8.0804065,-34.9093194
12,SEM VÍTIMA,FINALIZADA,2016-01-01,15:30:00,TORRE,RUA ODETE MONTEIRO,,COM A RUA PROFESSOR ESTEVAO FRANCISCO DA COSTA PROX DA PADARIA RAINHA DA TORRE,COLISÃO,COLISAO DE DOIS AUTOS S/V,2,,,,,,,,,0,-8.0463331,-34.9202064
13,SEM VÍTIMA,FINALIZADA,2016-01-01,16:37:00,SAN MARTIN,AV GENERAL SAN MARTIN,,E/F DA CAVALARIA,COLISÃO,COLISAO DE MOTO E AUTO S/V,1,1,,,,,,,,0,-8.0683615,-34.9280654
14,SEM VÍTIMA,CANCELADA,2016-01-01,16:56:00,JORDÃO,RUA RIO XINGU,,NA ENTRADO DO JORDAO E/F DA BIG VALE,COLISÃO,COLISAO DE DOIS AUTOS S/V,2,,,,,,,,,0,-8.1198803,-34.9387852
15,COM VÍTIMA,FINALIZADA,2016-01-01,18:30:00,JAQUEIRA,AV RUI BARBOSA,,EM FRENTE AO PARQUE DA JAQUEIRA,COLISÃO,COLISÃO ENTRE QUATRO AUTO SEGUINTE DE UM CAPOTAMENTO DE UM DOS VEICULOS,4,,,,,,,,,1,-8.0386403,-34.9050081
16,SEM VÍTIMA,CANCELADA,2016-01-01,18:35:00,CASA FORTE,AV DEZESSETE DE AGOSTO,272,EM FRENTE AO RECANTO PARAIBANO,COLISÃO,COLISÃO ENTRE DOIS AUTO S/V,2,,,,,,,,,0,-8.0349606,-34.9120042
17,COM VÍTIMA,FINALIZADA,2016-01-01,23:09:00,BEBERIBE,AV BEBERIBE,4510,NO POSTO DE SAUDE DE BEBERIBE,ATROPELAMENTO,VEICULO SOBE CALÇADA E PEGA PEDESTRE QUEBRANDO MURO DO POSTO,1,,,,1,,,6,,1,-8.0040052,-34.8967899
18,SEM VÍTIMA,CANCELADA,2016-01-02,00:12:00,DERBY,RUA GUILHERME PINTO,,PERTO DA ACADEMIA TRENO // CRUZAMENTO COM A RUA JOAQUIM NABUCO,CHOQUE,CONDUTOR PERDEU O CONTROLE DO VEÍCULO E SE CHOCOU CONTRA O MURO DO EDIFÍCIO,1,,,,,,,,,0,-8.0527852,-34.90226
19,VÍTIMA FATAL,FINALIZADA,2016-01-02,06:32:00,BOA VISTA,RUA DA AURORA,,CRUZAMENTO COM RUA PRINCESA IZABEL,COLISÃO,SEGUNDO INFORMAÇÕES DE POPULARES O CONDUTOR DA MOTOCICLETA AVANÇOU O SINAL VERMELHO E COLIDIU NO ÔNIBUS DA CRT.,,,1,,,1,,,,,-8.0565882,-34.8781384
20,SEM VÍTIMA,FINALIZADA,2016-01-02,09:08:00,BOA VIAGEM,RUA VISCONDE DE JEQUITINHONHA,,SEMAFORO 433 CRUZAMENTO COM A RUA CAPITÃO ZUZINHA,COLISÃO,COLISÃO  SEM VITIMASVT 13 DA CTTU NO LOCAL VAI FAZER O B.O,2,,,,,,,,,0,-8.1384247,-34.9043899
21,SEM VÍTIMA,FINALIZADA,2016-01-02,10:58:00,IMBIRIBEIRA,RUA SARGENTO SILVINO DE MACEDO,273,EMM FRENTE LACOX,COLISÃO,COL.S/VSET.CD,2,,,,,,,,,0,-8.1105886,-34.906336
22,COM VÍTIMA,FINALIZADA,2016-01-02,11:00:00,ARRUDA,RUA DO MACHADO,862,E/F AO BLOCO OS IRRESPONSAVEIS,COLISÃO,COM UMA VÍTIMA,1,1,,,,,,,,1,-8.0185838,-34.8881069
23,SEM VÍTIMA,FINALIZADA,2016-01-02,11:42:00,AREIAS,AV DR JOSE RUFINO,1243,EM FRENTE DO MERCADO ARCO IRIS,COLISÃO,COL.S/V SET.JABOATÃO,2,,,,,,,,,0,-8.0902923,-34.934394
24,SEM VÍTIMA,CANCELADA,2016-01-02,12:32:00,ENCRUZILHADA,RUA CARLOS BORROMEU,51,AO LADO DO MERCADO DA ENCRUZILHADA /,COLISÃO,DOIS AUTOS  / CRIANÇA DE COLO NO LOCAL,2,,,,,,,,,0,-8.0368657,-34.8926834
25,COM VÍTIMA,FINALIZADA,2016-01-02,12:52:00,CASA AMARELA,RUA VASCO DA GAMA,,E/F DO TREZE DO VASCO,COLISÃO,COLISAO DE MOTO E AUTO COM UMA VITIMA,1,1,,,,,,,,1,-8.0123513,-34.9201011
26,SEM VÍTIMA,FINALIZADA,2016-01-02,13:29:00,MADALENA,EST DOS REMEDIOS,,E/F  AO HOSP LESSA DE ANDRADE ANTES DO CRUZAMENTO COM A RUA BENFICA.,COLISÃO,01 AUTO 01 ONIBUS,1,,,,,1,,,,0,-8.0599259,-34.9073633
27,SEM VÍTIMA,FINALIZADA,2016-01-02,13:40:00,TEJIPIÓ,AV DR JOSE RUFINO,,EM FRENTE AO POSTO BR / SENT CIDADE,COLISÃO,DOIS AUTOS,2,,,,,,,,,0,-8.0904501,-34.9521701
28,SEM VÍTIMA,FINALIZADA,2016-01-02,13:48:00,BEBERIBE,AV BEBERIBE,,E/F DO COLEGIO PEDRO CELSO PROX DA PRAÇA,COLISÃO,COLISAO DE DOIS AUTOS S/V,2,,,,,,,,,0,-8.019391,-34.8942267
29,SEM VÍTIMA,FINALIZADA,2016-01-02,15:08:00,CASA AMARELA,RUA ALTO SANTA ISABEL,,PROX DO MERCADO DE CASA MARELA NA SUBIDA DO ALTO SANTA IZABEL,COLISÃO,COLISAO DE MOTO AUTO  S/V,1,1,,,,,,,,0,-8.1118194,-34.9610137
30,SEM VÍTIMA,FINALIZADA,2016-01-02,15:18:00,GUABIRABA,RUA CASSITERITA,,TERMINAL DA GUABIRABA,COLISÃO,01 AUTO 01 MIROONIBUS,1,,,,,1,,,,0,-7.9932259,-34.9359777
31,SEM VÍTIMA,FINALIZADA,2016-01-02,17:41:00,MACAXEIRA,AV DA RECUPERACAO,,DENTRO DA INTEGRAÇAO DA MACAXEIRA,COLISÃO,COLISAO DE ONIBUS E AUTO S/V,1,,,,,1,,,,0,-7.9880409,-34.9332224
32,SEM VÍTIMA,FINALIZADA,2016-01-02,18:21:00,MACAXEIRA,AV NORTE,,NO GIRADOURO PROX. A INTEGRAÇÃO SENTIDO CIDADE,COLISÃO,COLISÃO ENTRE AUTO E MOTO S/V,1,1,,,,,,,,0,-8.0159377,-34.9303999
33,SEM VÍTIMA,CANCELADA,2016-01-02,20:28:00,IPUTINGA,RUA SAO MATEUS,225,APOS A PADARIA MASSA PURA SENTIDO CAXANGA,COLISÃO,COLISÃO ENTRE DOIS AUTO S/V UM DOS CONDUTORES APRESENTA SINAIS DE EMBREAGUES,2,,,,,,,,,0,-8.0395998,-34.9363578
34,SEM VÍTIMA,FINALIZADA,2016-01-03,00:15:00,BOA VIAGEM,AV ENGENHEIRO DOMINGOS FERREIRA,,EM FRENTE AO RESTAURANTE PONTEIO // BAR SÓ CALDINHO,COLISÃO,COLISÃO ENTRE UM ÔNIBUS E UM AUTO-PASSEIO SEM VÍTIMAS,1,,,,,1,,,,0,-8.1111171,-34.8927465
35,COM VÍTIMA,FINALIZADA,2016-01-03,00:49:00,JARDIM SÃO PAULO,AV SAO PAULO,,PRÓX AO SUPERMERCADO VENDE MAIS,COLISÃO,COLISÃO ENTRE UM AUTO E UMA MOTO,1,1,,,,,,,,1,-8.0814047,-34.9400233
36,VÍTIMA FATAL,FINALIZADA,2016-01-03,03:41:00,IMBIRIBEIRA,RUA ARQUITETO LUIZ NUNES,,POR TRAZ DO SUPERMERCADO ASSAI,COLISÃO,AUTO E MOTO,1,1,,,,,,,,,-8.0927682,-34.9110955
37,SEM VÍTIMA,FINALIZADA,2016-01-03,07:10:00,MADALENA,AV VISCONDE DE ALBUQUERQUE,185,TRAVESSA COM ARNALDO BASTOSAPÓS O BANCO ITAU,COLISÃO,COLISÃO SEM VITIMAS,1,1,,,,,,,,0,-8.0563246,-34.9071047
38,SEM VÍTIMA,FINALIZADA,2016-01-03,09:40:00,ARRUDA,AV BEBERIBE,,SEMAFORO 131,COLISÃO,COLISÃO SEM VITÍMA,1,,,,,1,,,,0,-8.0262857,-34.8932578
39,COM VÍTIMA,FINALIZADA,2016-01-03,10:51:00,SÍTIO DOS PINTOS,RUA DO SITIO SAO BRAZ,590,uma rua após o campo de futebol do sitio dos pintos,CAPOTAMENTO,atropelamento seguido de capotamento com vitima,1,,,,,,,,,1,-8.0165736,-34.9597266
40,SEM VÍTIMA,CANCELADA,2016-01-03,10:44:00,VÁRZEA,RUA AGRICOLANDIA,470,NA CALÇDA DA PADARIA DELICATESSE CIDADE UNIVERSITARIA,COLISÃO,COLISÃO SEM VITIMAS,2,,,,,,,,,0,-8.0424865,-34.9470003
41,SEM VÍTIMA,FINALIZADA,2016-01-03,11:02:00,AFLITOS,AV CONS ROSA E SILVA,1376,E/F  AO EDIFICIO  MIRNA SEMAFORO 047,COLISÃO,COLISÃO SEM VITIMAS,1,,,,,1,,,,0,-8.0395662,-34.8992366
42,COM VÍTIMA,FINALIZADA,2016-01-03,11:42:00,SANTO AMARO,RUA CAPITAO LIMA,,PROXÍMO AO JORNAL DO COMMERCIO,COLISÃO,COLISÃO COM VÍTIMA,1,1,,,,,,,,1,-8.053663,-34.8787208
43,SEM VÍTIMA,FINALIZADA,2016-01-03,12:21:00,JARDIM SÃO PAULO,RUA JUNDIAI,321,EM FRENTE AO DEPOSITO DE CHARQUE,COLISÃO,DOIS AUTO,2,,,,,,,,,0,-8.0793524,-34.9461712
44,SEM VÍTIMA,FINALIZADA,2016-01-03,12:31:00,IMBIRIBEIRA,AV MARECHAL MASCARENHAS DE MORAES,,EM FRENTE A TUPAM SENTIDO AV.SUL,COLISÃO,COLISÃO ENTRE DOIS AUTO S/V,2,,,,,,,,,0,-8.1134632,-34.912731
45,SEM VÍTIMA,CANCELADA,2016-01-03,13:43:00,IPSEP,AV RECIFE,,EM FRENTE AO MARTELINHO DE OURO SEMAFORO 247,COLISÃO,COLISÃO ENTRE DOIS AUTO S/V,2,,,,,,,,,0,-8.1116174,-34.9264765
46,SEM VÍTIMA,FINALIZADA,2016-01-03,13:55:00,VÁRZEA,AV CAXANGA,,EM FRENTE AO TERMINAL DE ONIBUS DA CAXANGÁ,COLISÃO,COLISÃO S VITIMA OYY9726 ONIBUS / MOTO KJK5133,1,1,,,,,,,,0,-8.0345856,-34.9498768
47,COM VÍTIMA,FINALIZADA,2016-01-03,14:38:00,ESPINHEIRO,AV JOAO DE BARROS,1545,EM FRENTE A FARMACIA PAGUE MENOS E A ESCOLA SABER VIVER,COLISÃO,AUTO E MOTO,1,1,,,,,,,,1,-8.0410874,-34.8916841
48,COM VÍTIMA,CANCELADA,2016-01-03,15:42:00,ILHA DO RETIRO,AV BEIRA RIO,302,POR TRAS DO CLUBE DO SPORT,COLISÃO,AUTO E MOTO,1,1,,,,,,,,1,-8.0644379,-34.9015121
49,SEM VÍTIMA,FINALIZADA,2016-01-03,16:14:00,CASA AMARELA,RUA ALTO 13 DE MAIO,505,EM FRENTE AO TERMINAL DE ONIBUS DO ALTO 13 DE MAIO,COLISÃO,AUTO E ONIBUS,1,,,,,1,,,,0,-8.0092644,-34.9224809
50,SEM VÍTIMA,EM ATENDIMENTO,2016-01-03,16:48:00,VÁRZEA,RUA DIAS D'AVILA,429,E/F AO MOTEL COSTA AZUL,COLISÃO,02 AUTOS,2,,,,,,,,,0,-8.0329527,-34.9607446
51,SEM VÍTIMA,EM ATENDIMENTO,2016-01-03,17:11:00,BOA VIAGEM,RUA VISCONDE DE JEQUITINHONHA,,NO CRUZAMENTO COM A BARÃO DE SOUZA SEMAFORO 129,COLISÃO,COLISÃO ENTRE DOIS AUTO S/V,2,,,,,,,,,0,-8.1384247,-34.9043899
52,SEM VÍTIMA,CANCELADA,2016-01-03,18:26:00,BOA VIAGEM,AV BOA VIAGEM,848,EM STUDIO PORTAL DE BOA VIAGEM EM FRENTE A QUADRA DE TENIS PROX. A ACARDES,COLISÃO,COLISÃO ENTRE DOIS AUTO S/V,2,,,,,,,,,0,-8.0990532,-34.8843417
53,SEM VÍTIMA,CANCELADA,2016-01-03,19:30:00,TORRE,AV VISCONDE DE ALBUQUERQUE,,EM FRENTE AO ATACDO DOS PRESENTES SENTIDO PARNAMIRIM,COLISÃO,COLISÃO ENTRE DOIS AUTO S/V,1,1,,,,,,,,0,-8.0535603,-34.9067618
54,SEM VÍTIMA,FINALIZADA,2016-01-03,22:10:00,AFOGADOS,RUA NICOLAU PEREIRA,,NA ESQUINA DA FABRICA DA LIMONDA NO CRUZAMENTO DA RUA DA PAZ,COLISÃO,ONIBUS DE TURISMO E AUTO,1,,,,,1,,,,0,-8.0781079,-34.9055766
55,SEM VÍTIMA,FINALIZADA,2016-01-03,23:21:00,IMBIRIBEIRA,AV MARECHAL MASCARENHAS DE MORAES,,CIDADE SENTIDO AEROPORTO PROX AO AEROPORTO APOS O VIADUTO TANCREDO NEVES,COLISÃO,COLISAO ENTRE DOIS AUTO S/V,2,,,,,,,,,0,-8.1134632,-34.912731
56,SEM VÍTIMA,FINALIZADA,2016-01-04,08:19:00,BOA VIAGEM,RUA PADRE CARAPUCEIRO,706,NA ESQUINA DO SEMAFORO 321,COLISÃO,COLISÃO SEM VITIMAS,,,,,,,,,,0,-8.1171086,-34.9018391
57,SEM VÍTIMA,FINALIZADA,2016-01-04,08:37:00,PINA,RUA JOSE MARIANO FILHO,87,REPARAÇÃO E LOCADORA DE VEICULOS FOXEM FRENTE,COLISÃO,COLISÃO SEM VITIMAS,1,,,,,1,,,,0,-8.0855996,-34.885448
58,SEM VÍTIMA,FINALIZADA,2016-01-04,09:22:00,AREIAS,AV DR JOSE RUFINO,757,EM FRENTE A SOCORRO DOCESSENT/AFOGADOS,COLISÃO,COLISÃO SEM VITIMAS,2,,,,,,,,,0,-8.0872557,-34.931402
59,SEM VÍTIMA,FINALIZADA,2016-01-04,09:58:00,SANTO AMARO,RUA TREZE DE MAIO,,E/F AO BOX & BOX AO LADO DA MAURICIO DE NASSAU,COLISÃO,SEM VÍTIMAS,2,,,,,,,,,0,-8.0500309,-34.8820456
60,SEM VÍTIMA,FINALIZADA,2016-01-04,11:05:00,IMBIRIBEIRA,RUA IZABEL DE SOUZA,178,POR  TRÁS DA CASA DO MARCENEIRO DA MASCARENHAS DE MORAES,COLISÃO,COLISÃO SEM VITIMAS,2,,,,,,,,,0,-8.1069045,-34.9124586
61,SEM VÍTIMA,FINALIZADA,2016-01-04,11:55:00,IMBIRIBEIRA,AV MARECHAL MASCARENHAS DE MORAES,,EM FRENTE A INFRAERO / SENT JORDÃO,COLISÃO,CAMINHÃO BAU E AUTO,1,,,,,,1,,,0,-8.1134632,-34.912731
62,SEM VÍTIMA,CANCELADA,2016-01-04,12:10:00,BOA VIAGEM,RUA FELIX DE BRITO E MELO,728,EM FRENTE AO EDIFICIO VILA D´OURO,COLISÃO,COLISÃO SEM VÍTIMA,1,1,,,,,,,,0,-8.1161205,-34.8988133
63,COM VÍTIMA,FINALIZADA,2016-01-04,12:33:00,TORRE,RUA PADRE LANDIM,,EM FRENTE AO COLÉGIO CRISTO REI,COLISÃO,COLISÃO COM VÍTIMA,1,1,,,,,,,,1,-8.0472178,-34.9123457
64,SEM VÍTIMA,FINALIZADA,2016-01-04,13:12:00,CAMPO GRANDE,RUA MARQUES DE BAIPENDI,,EM FRENTE AO MERCADINHO DOIS É BOM,COLISÃO,COLISÃO SEM VÍTIMA,2,,,,,,,,,0,-8.0266174,-34.8848857
65,SEM VÍTIMA,FINALIZADA,2016-01-04,13:30:00,PARNAMIRIM,AV PARNAMIRIM,,SEMAFORO 010,COLISÃO,COLISÃO DOIS AUTOS,2,,,,,,,,,0,-8.0339784,-34.9092795
66,SEM VÍTIMA,FINALIZADA,2016-01-04,13:32:00,BAIRRO DO RECIFE,AV ALFREDO LISBOA,,EM FRENTE AO MINISTERIO DA FAZENDA,COLISÃO,COLISÃO SEM VÍTIMA,1,,,,,,1,,,0,-8.0614931,-34.8706715
67,SEM VÍTIMA,FINALIZADA,2016-01-04,13:59:00,CASA FORTE,AV DEZESSETE DE AGOSTO,855,E/F A BIG BEM E A MC DONALDS SEMAFORO 346 CRUZ COIM A RUA LEONARDO CAVALCANTI.,COLISÃO,02 AUTOS,2,,,,,,,,,0,-8.0378742,-34.9166007
68,SEM VÍTIMA,FINALIZADA,2016-01-04,14:33:00,MADALENA,AV VISCONDE DE ALBUQUERQUE,,PROX DO LESSA DE ANDRADE E/F DO POSTO EXTRA,COLISÃO,COLISAO DE ONIBUS E AUTO S/V,1,,,,,,1,,,0,-8.0535603,-34.9067618
69,SEM VÍTIMA,FINALIZADA,2016-01-04,14:55:00,AFOGADOS,RUA COSME VIANA,,NO SEMAFORO 334,COLISÃO,COLISAO DE DOIS AUTOS S/V,2,,,,,,,,,0,-8.0710914,-34.9094767
70,SEM VÍTIMA,FINALIZADA,2016-01-04,14:57:00,CAJUEIRO,AV SEBASTIAO SALAZAR,125,E/F AO BAR DA FAVA,COLISÃO,02 AUTOS,2,,,,,,,,,0,-8.0104341,-34.888075
71,SEM VÍTIMA,CANCELADA,2016-01-04,15:01:00,CAJUEIRO,AV SEBASTIAO SALAZAR,,EM FRENTE AO RESTAURANTE PIONEIRO DA FAVA,COLISÃO,COLISÃO SEM VÍTIMA,2,,,,,,,,,0,-8.0107523,-34.8845043
72,SEM VÍTIMA,FINALIZADA,2016-01-04,15:17:00,SANTO AMARO,RUA DO POMBAL,,PROXÍMO AO COMANDO DA GUARDA,COLISÃO,COLISÃO SEM VÍTIMA,2,,,,,,,,,0,-8.0493209,-34.8826261
73,COM VÍTIMA,FINALIZADA,2016-01-04,15:34:00,JORDÃO,AV MARIA IRENE,1225,PROXÍMO AO JORDÃO MOTO PEÇAS,COLISÃO,COLISÃO COM VÍTIMA,1,1,,,,,,,,1,-8.141103,-34.933518
74,SEM VÍTIMA,FINALIZADA,2016-01-04,15:51:00,BOA VIAGEM,AV CONSELHEIRO AGUIAR,,E/F DO ESTACIONAMENTO DA PADARIA DIPLOMATA,COLISÃO,COLISAO DE DOIS AUTOS S/V,2,,,,,,,,,0,-8.1109937,-34.8914817
75,SEM VÍTIMA,FINALIZADA,2016-01-04,15:51:00,CABANGA,AV ENGENHEIRO JOSE ESTELITA,660,SENTIDO AGAMENON CABAGA HIATE CLUB,COLISÃO,2 AUTOS,1,,,,,,1,,,0,-8.0792327,-34.891949
76,COM VÍTIMA,FINALIZADA,2016-01-04,16:05:00,JORDÃO,RUA DR ALVARO FERRAZ,,TERMINAL DO ÔNIBUS DE JORDÃO BAIXO,COLISÃO,2 AUTOS,2,,,,,,,,,1,-8.1335763,-34.937211
77,SEM VÍTIMA,FINALIZADA,2016-01-04,16:12:00,BEBERIBE,AV BEBERIBE,,E/F DO SEST SENT,COLISÃO,COLISAO DE CAMINHAO E AUTO S/V,1,,,,,,1,,,0,-8.019391,-34.8942267
78,SEM VÍTIMA,CANCELADA,2016-01-04,16:14:00,BOA VIAGEM,AV CONSELHEIRO AGUIAR,4264,EM FRETE A GALLETOS,COLISÃO,COLISÃO SEM VÍTIMA,1,,,,,1,,,,0,-8.1245604,-34.8991826
79,SEM VÍTIMA,FINALIZADA,2016-01-04,16:16:00,CAMPO GRANDE,RUA ODORICO MENDES,379,EM FRENTE A LEO GELO,ENGAVETAMENTO,,3,,,,,,,,,0,-8.0354897,-34.880428
80,COM VÍTIMA,FINALIZADA,2016-01-04,16:43:00,BAIRRO DO RECIFE,AV ALFREDO LISBOA,,EM FRENTE A PRAÇA DO MARCO ZERO,COLISÃO,COLISÃO ENTRE AUTO E MOTO COM VITIMA,1,1,,,,,,,,1,-8.0614931,-34.8706715
81,COM VÍTIMA,FINALIZADA,2016-01-04,17:08:00,CASA FORTE,AV DEZESSETE DE AGOSTO,,ESQ COM A RUA  ENG OSCAR FERREIRA / SEMAFORO 646,COLISÃO,MOTO E AUTO,1,1,,,,,,,,1,-8.0343998,-34.9212091
82,SEM VÍTIMA,FINALIZADA,2016-01-04,17:27:00,IMBIRIBEIRA,AV MARECHAL MASCARENHAS DE MORAES,,PROXÍMO A IMBIRIBEIRA DIESEL / SENTIDO CIDADE,COLISÃO,COLISÃO SEM VÍTIMA,1,,,,,1,,,,0,-8.1134632,-34.912731
83,COM VÍTIMA,FINALIZADA,2016-01-04,17:50:00,SANTO AMARO,RUA TREZE DE MAIO,970,FÁCIL PNEU BORRACHARIA,ATROPELAMENTO,VEÍCULO SIENA ATROPELOU UMA SENHORA E UMA CRIANÇA,1,,,,,,,,,2,-8.0468067,-34.8795223
84,SEM VÍTIMA,CANCELADA,2016-01-04,18:09:00,BONGI,RUA DR SEVERINO JATOBA,1230,EM FRENTE AO BAR DO LUIZ E APOS A PADARIA SANTA JOANA,COLISÃO,AUTO E MOTO,1,1,,,,,,,,0,-8.0652398,-34.9186475
85,SEM VÍTIMA,FINALIZADA,2016-01-04,19:02:00,SAN MARTIN,RUA VISCONDE PARNAIBA,135,NA RUA DO BAR DO PAULO E A CHESF,COLISÃO,AUTO E MOTO,1,1,,,,,,,,0,-8.0659722,-34.9294411
86,SEM VÍTIMA,FINALIZADA,2016-01-04,19:15:00,CIDADE UNIVERSITÁRIA,RUA ODON RODRIGUES DE MORAIS REGO,,DENTRO DA UNIVERSIDADE FEDERAL,COLISÃO,COLISÃO ENTRE DOIS AUTO E UMA MOTO S/V,2,1,,,,,,,,0,-8.0419948,-34.9453072
87,SEM VÍTIMA,FINALIZADA,2016-01-04,20:03:00,IMBIRIBEIRA,AV MARECHAL MASCARENHAS DE MORAES,,NA SAIDA DO EMBARQUE NA DESCIDA DO VIA DUTO NO AEROPORTO,COLISÃO,COLISAO ENTRE DOIS AUTO S/V,2,,,,,,,,,0,-8.1134632,-34.912731
88,SEM VÍTIMA,FINALIZADA,2016-01-04,20:41:00,PINA,AV ENGENHEIRO DOMINGOS FERREIRA,,APOS A GREJA DO PINA SENTIDO BOA VIAGEM,COLISÃO,COLISÃO ENTRE ONIBUS DA BORBOREMA E AUTO S/V,1,,,,,1,,,,0,-8.0973885,-34.8863703
89,SEM VÍTIMA,FINALIZADA,2016-01-05,06:16:00,TAMARINEIRA,RUA CONEGO BARATA,,AO LADO DA FERREIRA COSTA / SENTIDO AFOGADOS,COLISÃO,COLISÃO SEM VÍTIMA,1,,,,,1,,,,0,-8.0314126,-34.9020838
90,SEM VÍTIMA,CANCELADA,2016-01-05,07:22:00,IMBIRIBEIRA,RUA JOSE DA SILVA LUCENA,273,EM FRENTE A EMPRESA LATOMEX,COLISÃO,COLISÃO SEM VÍTMA,1,1,,,,,,,,0,-8.1147683,-34.9074774
91,SEM VÍTIMA,FINALIZADA,2016-01-05,08:07:00,ENCRUZILHADA,AV NORTE,,EM FRENTE AO EXTRABOMSEMAFORO 045SENT/CENTRO,COLISÃO,COLISÃO SEM VITIMAS,2,,,,,,,,,0,-8.0373857,-34.8936992
92,SEM VÍTIMA,FINALIZADA,2016-01-05,09:34:00,TORREÃO,AV GOVERNADOR AGAMENON MAGALHAES,,EM FRENTE SECRETARIA DE DEFESA SOCIAL/ SENTIDO RECIFE,COLISÃO,COLISÃO SEM VÍTIMA,,,,,,,,,,0,-8.0412128,-34.8832667
93,SEM VÍTIMA,FINALIZADA,2016-01-05,09:51:00,TORRE,RUA JOAO DE DEUS,,RUA EM FRENTE AO RESTAURANTE BOI NO BAFO / SENTIDO AFOGADOS,COLISÃO,COLISÃO SEM VÍTIMA,3,,,,,,,,,0,-8.0471307,-34.9107111
94,SEM VÍTIMA,FINALIZADA,2016-01-05,10:44:00,BOA VIAGEM,AV ENGENHEIRO DOMINGOS FERREIRA,,AO LADO DO BROMPREÇO NO SEMAFORO 303 / SENTIDO BOA VIAGEM,COLISÃO,COLISÃO SEM VÍTIMA,2,,,,,,,,,0,-8.1111171,-34.8927465
95,SEM VÍTIMA,FINALIZADA,2016-01-05,10:56:00,BOA VIAGEM,AV ENGENHEIRO DOMINGOS FERREIRA,,E/F   AO CURSO DE INGLES  WIZARD,COLISÃO,COLISÃO   SEM VITIMAS   GM  BRITO  QTH,2,,,,,,,,,0,-8.1111171,-34.8927465
96,SEM VÍTIMA,CANCELADA,2016-01-05,11:59:00,ÁGUA FRIA,RUA SAO SEBASTIAO,572,PROX DA LADEIRA DE PEDRA,COLISÃO,COLISAO DE DOIS AUTOS S/V,2,,,,,,,,,0,-8.0198031,-34.8960679
97,SEM VÍTIMA,FINALIZADA,2016-01-05,12:24:00,BOA VISTA,RUA VELHA,413,EM FRENTE A IGREJA CATOLICA DO LARGO DA SANTA CRUZ,COLISÃO,DOIS AUTO,2,,,,,,,,,0,-8.0624642,-34.8878914
98,SEM VÍTIMA,CANCELADA,2016-01-05,12:26:00,BOA VIAGEM,AV CONSELHEIRO AGUIAR,,SEMÁFORO 005,COLISÃO,DOIS AUTOS,2,,,,,,,,,0,-8.1109937,-34.8914817
99,SEM VÍTIMA,CANCELADA,2016-01-05,12:51:00,BOA VISTA,RUA BARAO DE SAO BORJA,,COM ARUA JOSE DE ALENCAR,COLISÃO,DOIS  AUTOS,2,,,,,,,,,0,-8.060601,-34.8897105
100,SEM VÍTIMA,FINALIZADA,2016-01-05,13:05:00,SÃO JOSÉ,RUA DA CARIOCA,,COM A  RUA DA PRAIA AO LADO DO ARMAZEM  JUQUEIRA,COLISÃO,COLISAO DE DOIS AUTOS S/V,2,,,,,,,,,0,-8.0673311,-34.8763713
101,SEM VÍTIMA,FINALIZADA,2016-01-05,13:27:00,TEJIPIÓ,AV DR JOSE RUFINO,,ANTES DO MURO DO 4 DECON,COLISÃO,AUTO E MOTO,1,1,,,,,,,,0,-8.0904501,-34.9521701
102,SEM VÍTIMA,FINALIZADA,2016-01-05,13:30:00,BARRO,AV DR JOSE RUFINO,2612,PRX A ESCOLA ALBERTO TORRES /  SENT AFOGADOS,COLISÃO,AUTO E MOTO,2,,,,,,,,,0,-8.0928855,-34.9458002
103,SEM VÍTIMA,FINALIZADA,2016-01-05,14:00:00,IMBIRIBEIRA,AV MARECHAL MASCARENHAS DE MORAES,4728,EM FRENTE AO HOTEL AEROPORTO,COLISÃO,DOIS AUTOS,2,,,,,,,,,0,-8.1254556,-34.9154699
104,SEM VÍTIMA,CANCELADA,2016-01-05,14:08:00,CURADO,RUA DR GEORGE WILLIAM BUTLER,569,RUA DA  KIBOM  SORVANE,COLISÃO,VIATURA  E MOTO,,1,,,,,,1,,0,-8.0715398,-34.9819342
105,SEM VÍTIMA,PENDENTE,2016-01-05,14:15:00,SANTO ANTÔNIO,RUA MADRE DEUS,,EM FRENTE AO ESPAÇO ALFANDEGA,COLISÃO,DOIS AUTO,2,,,,,,,,,0,-8.0643492,-34.8735596
106,SEM VÍTIMA,FINALIZADA,2016-01-05,14:24:00,VÁRZEA,RUA ENGENHEIRO VASCONCELOS BITTENCOURT,352,EM FRENTE A ASSEMBLEIA DE DEUS DA BRASILIT,COLISÃO,DOIS AUTO,2,,,,,,,,,0,-8.0414289,-34.9504671
107,SEM VÍTIMA,CANCELADA,2016-01-05,14:28:00,IMBIRIBEIRA,AV MARECHAL MASCARENHAS DE MORAES,,AO LADO DA FACULDADE UNIVERSO / SENT  CIDADE / AO LADO DO POSTO SHELL,COLISÃO,DOIS AUTOS,1,,,,,,1,,,0,-8.1134632,-34.912731
108,SEM VÍTIMA,CANCELADA,2016-01-05,14:36:00,SANTO ANTÔNIO,RUA IMPERIAL,684,AO LADO DO MARTELINHO DE OURO,COLISÃO,DOIS AUTOS,2,,,,,,,,,0,-8.0737092,-34.8876393
109,SEM VÍTIMA,CANCELADA,2016-01-05,14:47:00,DOIS IRMÃOS,RUA DOIS IRMAOS,,PROX DO LAFEPE NO SEMAFORO 416,COLISÃO,COLISAO DE MOTO E AUTO COM VITIMA,1,1,,,,,,,,0,-8.0166534,-34.9410943
110,SEM VÍTIMA,FINALIZADA,2016-01-05,15:08:00,ILHA DO LEITE,RUA ESTADO DE ISRAEL,245,EM FRENTE AO HOSPITAL ILHA DO LEITE,COLISÃO,DOIS AUTO,2,,,,,,,,,0,-8.0640739,-34.8945483
111,SEM VÍTIMA,FINALIZADA,2016-01-05,15:27:00,BARRO,RUA POETA APRENDIZ,10,E/F AO MERCADO BOA OPCAO,COLISÃO,COLISAO ENTRE AUTO E MOTO,1,1,,,,,,,,0,-8.1074581,-34.9621512
112,COM VÍTIMA,FINALIZADA,2016-01-05,16:04:00,BOA VIAGEM,RUA FAUSTINO PORTO,65,PX A CAIXA ECONOMICA,ATROPELAMENTO,ATROPELAMENTO COM 1 VITIMA,1,,,,,,,,,1,-8.1184555,-34.8966241
113,SEM VÍTIMA,FINALIZADA,2016-01-05,16:32:00,TORRE,RUA CONDE DE IRAJA,,COM RUA  REAL DA TORRE / EM FRENTE A ESCOLA GERAÇÃO VITORIA,COLISÃO,DOIS AUTOS,2,,,,,,,,,0,-8.0462257,-34.9088014
114,SEM VÍTIMA,FINALIZADA,2016-01-05,17:38:00,JARDIM SÃO PAULO,RUA FREI ATANAZIO,,COM A RUA NOSSA SENHORA DE FATIMA NO SEMFORO 141,COLISÃO,COLISAO DE MOTO AUTO S/V,1,1,,,,,,,,0,-8.0828402,-34.9355433
115,SEM VÍTIMA,FINALIZADA,2016-01-05,17:40:00,BOA VIAGEM,AV ENGENHEIRO DOMINGOS FERREIRA,,ESTACIONAMENTO  TERREO DO CARREFOUR  NA OFICINA,COLISÃO,DOIS AUTOS,2,,,,,,,,,0,-8.1111171,-34.8927465
116,COM VÍTIMA,FINALIZADA,2016-01-05,18:10:00,ESPINHEIRO,AV GOVERNADOR AGAMENON MAGALHAES,,PROX. A UPE EM CIMA DO VIA DUTO DA JOÃO DE BARROS,COLISÃO,COLISÃO ENTRE AUTO E MOTO COM VITIMA,1,1,,,,,,,,1,-8.0488214,-34.8926222
117,COM VÍTIMA,CANCELADA,2016-01-05,18:50:00,IBURA,AV ENGENHO SERRA VERDE,850,APOS A CLINICA DR. DO BEM SENTIDO CENTRO UR3 PROX. A PADARIA MARAJOR,COLISÃO COM CICLISTA,COLISÃO ENTRE AUTO E CICLISTA C/V,1,,,1,,,,,,1,-8.1148944,-34.9513862
118,SEM VÍTIMA,FINALIZADA,2016-01-05,19:02:00,BOA VIAGEM,AV CONSELHEIRO AGUIAR,3303,PROX. A BIG BEN E O BANCO DO BRADESCO SENTIDO CIDADE,COLISÃO,COLISÃO ENTRE AUTO E ONIBUS DA BORBOREMA S/V,1,,,,,1,,,,0,-8.1181514,-34.8955626
119,SEM VÍTIMA,FINALIZADA,2016-01-05,21:19:00,PINA,AV HERCULANO BANDEIRA,915,APOS O ATACADÃO DOS PRESENTES SENTIDO BOA VIAGEM,COLISÃO,COLISÃO ENTRE DOIS AUTO S/V,2,,,,,,,,,0,-8.0858899,-34.8879983
120,SEM VÍTIMA,FINALIZADA,2016-01-06,03:27:00,CAXANGÁ,RUA MAURICIO DE NASSAU,,PRÓXIMO AO HOSPITAL ALTINO VENTURA // PRÓXIMO AO GOE,CHOQUE,CONDUTOR PERDEU O CONTROLE E SE SCHOCOU CONTRA O MURO DE UM TERRENO BALDIO,1,,,,,,,,,0,-8.0418277,-34.9253515
121,SEM VÍTIMA,FINALIZADA,2016-01-06,07:49:00,CAÇOTE,AV CAPITAO GREGORIO DE CALDAS,,AO LADO DO ESTACIONAMENTO DO HIPER DA AV. RECIFE,COLISÃO,COLISÃO SEM VÍTIMA,1,,,,,1,,,,0,-8.0963755,-34.929273
122,SEM VÍTIMA,FINALIZADA,2016-01-06,13:10:00,BOA VIAGEM,AV ANTONIO DE GOES,,AO LADO DO JCPM,COLISÃO,COLISÃO SEM VITIMA ENTRE 3 AUTOS,3,,,,,,,,,0,-8.0851678,-34.8868333
123,SEM VÍTIMA,FINALIZADA,2016-01-06,10:19:00,ILHA DO RETIRO,PRC DA BANDEIRA,,NA SAÍDA DO TUNEL/ SENTIDO ABDIAS DE CARVALHO,COLISÃO,COLISÃO SEM VÍTIMA,2,,,,,,,,,0,-8.0611989,-34.9012912
124,SEM VÍTIMA,FINALIZADA,2016-01-06,10:42:00,CAXANGÁ,AV CAXANGA,,SENTIDO  CIDADE  E/F A   CONCESSIONARIA   ITALIANA,COLISÃO,COLISÃO  SEM VITIMAS,2,,,,,,,,,0,-8.0369093,-34.945404
125,SEM VÍTIMA,FINALIZADA,2016-01-06,11:01:00,MADALENA,RUA BENFICA,,EM FRENTE AO BATALHAO DO CHOQUE,COLISÃO,,2,,,,,,,,,0,-8.058062,-34.9051858
126,SEM VÍTIMA,FINALIZADA,2016-01-06,11:18:00,BOA VIAGEM,RUA BARAO DE SOUZA LEAO,,EM FRENTE DO RESTAURANTE COSTA BRAVO,COLISÃO,COL.S/V.SET/ AEROPORTO,2,,,,,,,,,0,-8.1323771,-34.9082716
127,SEM VÍTIMA,FINALIZADA,2016-01-06,11:23:00,SANTO AMARO,AV GOVERNADOR AGAMENON MAGALHAES,,SENTIDO  OLINDA  RECIFE  E/F  AO  MINISTERIO PUBLICO  FEDERAL,COLISÃO,COLISÃO  SEM VITIMAS,1,,,,,,1,,,0,-8.0451621,-34.8892415
128,SEM VÍTIMA,FINALIZADA,2016-01-06,11:43:00,CAXANGÁ,AV CAXANGA,,SEMAFORO 008,COLISÃO,COLISAO ENTRE AUTO E MOTO,1,1,,,,,,,,0,-8.0369093,-34.945404
129,SEM VÍTIMA,FINALIZADA,2016-01-06,11:49:00,IMBIRIBEIRA,AV MARECHAL MASCARENHAS DE MORAES,4000,AO LADO DA LOCALIZA SEMI NOVOS,COLISÃO,COL.S/V.SET .SUB,1,,,,,,1,,,0,-8.1187509,-34.9140557
130,SEM VÍTIMA,FINALIZADA,2016-01-06,12:30:00,CASA FORTE,RUA JAYME LOYO,,EM FRENTE FARMACIA BIG BEN,COLISÃO,COL.S/V.SET.BR,2,1,,,,,,,,0,-8.0365133,-34.9149046
131,COM VÍTIMA,FINALIZADA,2016-01-06,12:59:00,BOA VIAGEM,AV BOA VIAGEM,6432,NO SEMAFORO Nº149,COLISÃO,COL.C/V,2,1,,,,,,,,1,-8.1448883,-34.905197
132,SEM VÍTIMA,FINALIZADA,2016-01-06,13:26:00,AFOGADOS,RUA VINTE E UM DE ABRIL,541,PX A ESTACAO IPIRANGA,COLISÃO,COLISAO ENTRE AUTOS,2,,,,,,,,,0,-8.0767686,-34.9118832
133,SEM VÍTIMA,FINALIZADA,2016-01-06,13:39:00,BOA VIAGEM,AV CONSELHEIRO AGUIAR,1350,EM FRENTE AO EDF/RESIDENCIAL PERNAMBUCO,COLISÃO,COL.S/V.,1,,,,,1,,,,0,-8.1020085,-34.8874807
134,SEM VÍTIMA,FINALIZADA,2016-01-06,13:46:00,CASA FORTE,AV DEZESSETE DE AGOSTO,387,NO SEMAFORO Nº614EM FRENTE DA NEFROCENTO,COLISÃO,COL.SS/VSET.BR,2,,,,,,,,,0,-8.0359674,-34.9127185
135,SEM VÍTIMA,FINALIZADA,2016-01-06,15:08:00,CASA AMARELA,EST DO ENCANAMENTO,1580,BAR GUAIAMUNDO,COLISÃO,COLISAO ENTRE AUTOS,2,,,,,,,,,0,-8.0288056,-34.9238644
136,SEM VÍTIMA,FINALIZADA,2016-01-06,15:22:00,BOA VIAGEM,AV CONSELHEIRO AGUIAR,,SEMAFORO Nº549,COLISÃO,COL.S/V.,2,,,,,,,,,0,-8.1109937,-34.8914817
137,SEM VÍTIMA,FINALIZADA,2016-01-06,17:27:00,IMBIRIBEIRA,RUA ALFREDO MARCONDES,,EM FRENTE AS LOJAS GEOVANI SONDA / POR TRAS DA FEREIRA COSTA,COLISÃO,DOIS AUTOS,2,,,,,,,,,0,-8.1124563,-34.9063833
138,COM VÍTIMA,FINALIZADA,2016-01-06,17:33:00,DOIS UNIDOS,RUA VINTE E UM DE JUNHO,343,PRÓXIMO A ASSEMBLÉIA DE DEUS E ANTENA DA OI,CHOQUE,CHOQUE DE VEÍCULO COM MURO,1,,,,,,,,,1,-7.993582,-34.9155978
139,SEM VÍTIMA,CANCELADA,2016-01-06,18:33:00,DERBY,AV GOVERNADOR AGAMENON MAGALHAES,141,UM SEMAFORO ANTES DO HOSPITAL PORTUGUES,COLISÃO,CAMINHÃO E AUTO,1,,,,,,1,,,0,-8.0608552,-34.8981566
140,COM VÍTIMA,FINALIZADA,2016-01-06,18:40:00,CASA AMARELA,RUA ALTO JOSE BONIFACIO,149,PROX. A FEIRA DA RODINHA,ATROPELAMENTO,VEICULO COLIDIO COM CICLISTA ONDE A VITIMA JA FOI SOCORRIDA,1,,,1,,,,,,1,-8.0181243,-34.911764
141,COM VÍTIMA,CANCELADA,2016-01-06,19:13:00,VÁRZEA,RUA FRANCISCO LACERDA,265,EM FRENTE AO RESTAURANTE BRAZZETUS,COLISÃO,AUTO E MOTO,1,1,,,,,,,,1,-8.0490249,-34.9575632
142,COM VÍTIMA,FINALIZADA,2016-01-06,19:48:00,BOA VIAGEM,RUA ANTONIO FALCAO,,EMBAIXO DO VIADUTO DA VIA MANGUE,COLISÃO,AUTO E MOTO,1,1,,,,,,,,1,-8.1148235,-34.897323
143,COM VÍTIMA,FINALIZADA,2016-01-06,19:58:00,TORRE,RUA LEONARDO BEZERRA CAVALCANTE,672,EM FRENTE A SHOPPING PLAZA EM FRENTE A LOJA CARA DE SONO,COLISÃO,AUTO E MOTO,1,1,,,,,,,,1,-8.0373791,-34.9124107
144,SEM VÍTIMA,FINALIZADA,2016-01-06,22:25:00,TORRE,RUA JOSE BONIFACIO,,ENFR A FARMACIA DROGASIL POR TRAS DO ATACADO DOS PRESENTES,COLISÃO,VEICULO OFICIAL E UMA SHINERAY,1,,1,,,,,,,0,-8.0436532,-34.9078584
145,SEM VÍTIMA,EM ATENDIMENTO,2016-01-06,23:24:00,CORDEIRO,AV PROFESSOR ESTEVAO FRANCISCO DA COSTA,7,PROX AO GOE EM FRENTE AO POSTO DE PETRO CAL,COLISÃO,COLISAO ENTRE DOIS AUTO S/V,2,,,,,,,,,0,-8.0503553,-34.9209978
146,SEM VÍTIMA,EM ATENDIMENTO,2016-01-07,00:23:00,BOA VIAGEM,RUA DOM JOSE LOPES,,POR TRÁS DA FERREIRA PINTO // RUA DO RESTAURANTE CANGAÇO,COLISÃO,COLISÃO ENTRE DOIS AUTOS S/V,2,,,,,,,,,0,-8.1266499,-34.904606
147,SEM VÍTIMA,FINALIZADA,2016-01-07,07:19:00,TEJIPIÓ,RUA PAULINO DE FARIAS,226,PROXÍMO A ESTAÇÃO DE COQUEIRAL E/F DO MERCADINHO CUSTODIA,COLISÃO,COLISÃO SEM VÍTIMA,2,,,,,,,,,0,-8.0853196,-34.966677
148,SEM VÍTIMA,FINALIZADA,2016-01-07,07:26:00,BOA VIAGEM,RUA JOSE DA SILVA LUCENA,273,E/F A LACOMEX LOJA DE VINHOS NO LADO DIREITO DA VIA.,COLISÃO,SEM VÍTIMAS,1,1,,,,,,,,0,-8.1147683,-34.9074774
149,SEM VÍTIMA,FINALIZADA,2016-01-07,07:50:00,BOA VIAGEM,RUA PROFESSOR JOSE BRANDAO,2257,EM FRENTE AO RESTAURANTE GIRO PRAIA,COLISÃO,COLISÃO SEM VITIMA,2,,,,,,,,,0,-8.1118458,-34.8947337
150,SEM VÍTIMA,CANCELADA,2016-01-07,08:17:00,CAXANGÁ,AV CAXANGA,,NO SEMAFORO 651 E/F DA FACIPE NA RUA DO COLEGIO CONHECER,COLISÃO,COLISAO DE CAMINHAO E AUTO,1,,,,,,1,,,0,-8.0369093,-34.945404
151,SEM VÍTIMA,EM ATENDIMENTO,2016-01-07,08:30:00,BOA VIAGEM,RUA PETROLINA,4777,EM FRENTE AO RECIFE MONT HOTEL,COLISÃO,COLISÃO SEM VITIMA,2,,,,,,,,,0,-8.129701,-34.9001552
152,SEM VÍTIMA,FINALIZADA,2016-01-07,09:20:00,VASCO DA GAMA,RUA VASCO DA GAMA,715,EM FRENTE A STELA MOVEIS,COLISÃO,COLISÃO  SEM VITIMAS,1,,,,,1,,,,0,-8.014827,-34.9200446
153,SEM VÍTIMA,FINALIZADA,2016-01-07,09:53:00,ILHA DO LEITE,RUA ANTONIO GOMES DE FREITAS,,EM FRENTE HOPE NO SEMAFORO 490,COLISÃO,COLISÃO SEM VÍTIMA,2,,,,,,,,,0,-8.0661374,-34.8943016
154,SEM VÍTIMA,FINALIZADA,2016-01-07,10:21:00,TORRE,AV VISCONDE DE ALBUQUERQUE,836,APOS O HOPITAL DE AVILA,COLISÃO,COLISAO DE ONIBUS E AURTO S/V,1,,,,,1,,,,0,-8.0508623,-34.9063739
155,COM VÍTIMA,FINALIZADA,2016-01-07,10:29:00,BOA VIAGEM,AV ENGENHEIRO DOMINGOS FERREIRA,3333,EM FRENTE A GALERIA SANTA ROSA,COLISÃO,COLISÃO COM VITIMAONIBUS E AUTO-PASSEIO,1,,,,,1,,,,1,-8.1182133,-34.8968294
156,SEM VÍTIMA,FINALIZADA,2016-01-07,10:32:00,IBURA,AV DOIS RIOS,,PROXÍMO A POLICLINICA ARNALDO MARQUES,COLISÃO,COLISÃO SEM VÍTIMA /,,,,,,,,,,0,-8.1147915,-34.9398949
157,COM VÍTIMA,FINALIZADA,2016-01-07,10:36:00,SAN MARTIN,RUA OUREM,,COM A RUA CONSUL VIALARES FRAGOSO ESQUINA DA CAVALARIA EDF QUINTA DAS GRAÇAS,COLISÃO,COLISAO DE DOIS AUTOS COM UMA VITIMA,1,1,,,,,,,,1,-8.0688307,-34.9263912
158,SEM VÍTIMA,FINALIZADA,2016-01-07,10:48:00,BOA VIAGEM,RUA VISCONDE DE JEQUITINHONHA,,NO CRUZAMENTO DA RUA ENGERENHO ZAEL DIOGENES,COLISÃO,COLISÃO SEM VÍTIMA,1,1,,,,,,,,0,-8.1384247,-34.9043899
159,SEM VÍTIMA,CANCELADA,2016-01-07,11:31:00,COELHOS,RUA DOS COELHOS,,EM FRENTE AO IMIP,COLISÃO,COLISÃO SEM VÍTIMA,2,,,,,,,,,0,-8.0671242,-34.8900462
160,SEM VÍTIMA,CANCELADA,2016-01-07,11:41:00,SAN MARTIN,AV ENGENHEIRO ABDIAS DE CARVALHO,,COM A RUA GENERAL SAN MARTIN E/F DA CHESF NO SEMAFORO 058,COLISÃO,COLISAO DE CAMINHAO E AUTO S/V NO SEMAFORO 058,1,,,,,,1,,,0,-8.0613623,-34.9292042
161,SEM VÍTIMA,FINALIZADA,2016-01-07,12:24:00,TORRÕES,AV ENGENHEIRO ABDIAS DE CARVALHO,,AO LADO DA YOKI GALETOS / SEN BR /  ESTACIONADOS NO POSTO YPIRANGA,COLISÃO,TRES VEÍCULOS,3,,,,,,,,,0,-8.0618728,-34.9304544
162,SEM VÍTIMA,CANCELADA,2016-01-07,12:59:00,IPUTINGA,RUA MANOEL JOAQUIM DE ALMEIDA,202,RUA LATERAL AO HIPER DA CAXANGA,COLISÃO,DOIS AUTOS,2,,,,,,,,,0,-8.0410328,-34.9419559
163,SEM VÍTIMA,FINALIZADA,2016-01-07,13:26:00,DERBY,AV GOVERNADOR AGAMENON MAGALHAES,,AO LADO DA PRAÇA DO DERBY E/F DA FACE IMAGEM S/T BOA VIAGEM,COLISÃO,COLISAO DE ONIBUS E AUTO S/V,1,,,,,1,,,,0,-8.056982,-34.8977316
164,SEM VÍTIMA,CANCELADA,2016-01-07,13:34:00,JAQUEIRA,RUA LEONARDO BEZERRA CAVALCANTE,340,NA RUA DA INSINUANTE E/F DO EDF PORTAL DO CAPIBARIBE,COLISÃO,COLISAO DE MOTO E AUTO S/V,1,1,,,,,,,,0,-8.0373154,-34.90959
165,SEM VÍTIMA,CANCELADA,2016-01-07,13:38:00,DERBY,AV GOVERNADOR AGAMENON MAGALHAES,,SAÍDA DO INTERNACIONAL SENTIDO BOA VIAGEM,COLISÃO,01 AUTO 01 ONIBUS,1,,,,,1,,,,0,-8.056982,-34.8977316
166,COM VÍTIMA,FINALIZADA,2016-01-07,13:41:00,PARNAMIRIM,RUA LEONARDO BEZERRA CAVALCANTE,250,PRÓXIMO AO HOSPITAL MARIA LUCINDA E/F COLÉGIO SANTA MARIA MARILAC SENTIDO CASA FORTE,COLISÃO,01 MOTO 01 AUTO,1,1,,,,,,,,1,-8.0368817,-34.908773
167,COM VÍTIMA,FINALIZADA,2016-01-07,13:53:00,IMBIRIBEIRA,AV MARECHAL MASCARENHAS DE MORAES,,EM BAIXO DO SEMAFORO 288,COLISÃO,COLISAO DE MOTO E DOIS AUTO S/V,2,,,,,,,,,1,-8.1134632,-34.912731
169,SEM VÍTIMA,FINALIZADA,2016-01-07,14:25:00,BREJO DA GUABIRABA,AV VEREADOR OTACILIO AZEVEDO,,AO LADO DA GARAGEM EMPRESA GLOBO,COLISÃO,01 MOTO 01 AUTO,1,1,,,,,,,,0,-7.9920033,-34.9289016
170,SEM VÍTIMA,FINALIZADA,2016-01-07,14:27:00,BOA VIAGEM,AV CONSELHEIRO AGUIAR,,SEMAFARO 146,COLISÃO,COLISAO ENTRE ONIBUS E AUTO,1,,,,,1,,,,0,-8.1109937,-34.8914817
171,COM VÍTIMA,FINALIZADA,2016-01-07,16:05:00,AREIAS,AV DR JOSE RUFINO,,SEMÁFORO 557 / SENT CIDADE,COLISÃO,MOTO E AUTO,1,1,,,,,,,,1,-8.0899501,-34.9342698
172,SEM VÍTIMA,FINALIZADA,2016-01-07,16:19:00,DERBY,AV GOVERNADOR AGAMENON MAGALHAES,,E/D AO HR SENTIDO BOA VIAGEM,COLISÃO,02 AUTOS,2,,,,,,,,,0,-8.056982,-34.8977316
173,SEM VÍTIMA,CANCELADA,2016-01-07,18:08:00,CORDEIRO,RUA DR MIGUEL VIEIRA FERREIRA,472,NA RUA DO COLEGIO GERAÇÃO 2000,COLISÃO,COLISÃO ENTRE AUTO E MOTO S/V,1,1,,,,,,,,0,-8.0509909,-34.9346511
174,SEM VÍTIMA,EM ATENDIMENTO,2016-01-07,18:49:00,ENCRUZILHADA,AV NORTE,2651,ENFR ED LAN CASTER  PROX AO EXTRA BOM  SEMAFORO 045,COLISÃO,ONIBUS PEDROSA X AUTO,1,,,,,1,,,,0,-8.0372529,-34.893943
175,VÍTIMA FATAL,FINALIZADA,2016-01-07,20:09:00,BOA VIAGEM,AV BOA VIAGEM,6472,NO SEMAFORO 149,COLISÃO,PERSEGUIÇÃO DA PM POR VEICULO ROUBADO TERMINA EM COLISÃO DE 5 AUTO C/V,5,,,,,,,,,,-8.1452028,-34.9054522
176,SEM VÍTIMA,CANCELADA,2016-01-07,21:16:00,BOA VIAGEM,RUA JEAN MERMOZ,6234,UMA RUA ENTES DA PRAÇA DONA LINDU,COLISÃO,DOIS AUTO,2,,,,,,,,,0,-8.1431622,-34.9042512
177,SEM VÍTIMA,FINALIZADA,2016-01-07,22:47:00,BOA VIAGEM,RUA PADRE CARAPUCEIRO,,CRUZAMENTO COM A DOMINGO FERREIRA SEMAFORO 216,COLISÃO,DOIS AUTO,2,,,,,,,,,0,-8.1179232,-34.9000219
178,COM VÍTIMA,FINALIZADA,2016-01-08,02:42:00,CAMPO GRANDE,AV GOVERNADOR AGAMENON MAGALHAES,,SEMÁFORO EM FRENTE AO PRÉDIO DO IC,CHOQUE,CONDUTOR PERDEU O CONTROLE DO VEÍCULO E SE CHOCOU CONTRA A  MARGEM DO CANAL,1,,,,,,,,,1,-8.0382483,-34.8760924
179,COM VÍTIMA,FINALIZADA,2016-01-08,06:03:00,CAXANGÁ,AV CAXANGA,624,PX A POWER CAR,COLISÃO,COLISAO ENTRE AUTO E DUAS MOTOS,1,2,,,,,,,,2,-8.053826,-34.9142851
180,SEM VÍTIMA,CANCELADA,2016-01-08,06:28:00,VASCO DA GAMA,RUA VASCO DA GAMA,360,EM FRENTE  AO CLUBE TREZE DO VASCO,COLISÃO,COLISÃO SEM VITIMAS,1,,,,,1,,,,0,-8.017904,-34.921301
181,COM VÍTIMA,FINALIZADA,2016-01-08,06:38:00,IPSEP,AV RECIFE,,SENTIDO  AEROPORTO  SUBURBIO EM BAIXO DO SEMAFORO 130,COLISÃO,COLISÃO  COM 1 VITIMA,1,,,,,,,,,1,-8.1116174,-34.9264765
182,COM VÍTIMA,FINALIZADA,2016-01-08,07:20:00,BOA VIAGEM,RUA PADRE CABRAL,86,EM FRENTE AO EDF PARADOR DE BARCELONA RUA DA FARMACIA MUNDIAL,ATROPELAMENTO,ATROPELAMENTO BOMBEIRO NO LOCAL,,,,,,1,,,,1,-8.1336137,-34.9056801
183,COM VÍTIMA,FINALIZADA,2016-01-08,07:32:00,IMBIRIBEIRA,AV ENGENHEIRO ALVES DE SOUZA,546,E/F A GIOVANI CABELEREIRO  A ESTAÇÃO DA CELPE. NO LADO ESQUERDO DA VIA.,,COM UMA VÍTIMA.,1,1,,,,,,,,1,-8.0973342,-34.9149874
184,SEM VÍTIMA,FINALIZADA,2016-01-08,08:27:00,AREIAS,RUA IPOJUCA,,E/F AO POSTO SHELL E A IGREJA PRESBITERIANA. NO LADO DIREITO DA VIA. (SEMÁFORO Nº 044),COLISÃO,SEM VÍTIMAS.,2,,,,,,,,,0,-8.0960629,-34.9361205
185,SEM VÍTIMA,FINALIZADA,2016-01-08,08:42:00,ROSARINHO,RUA DR JOSE MARIA,,PONTO DE TAXI PX AO PORTAL DA PICANHA,COLISÃO,COLISAO ENTRE AUTOS,2,,,,,,,,1,0,-8.0353342,-34.8987987
186,SEM VÍTIMA,FINALIZADA,2016-01-08,08:44:00,AREIAS,AV RECIFE,,E/F AO  RESTAURANTE  GALETUS,COLISÃO,COLISÃO SEM VITIMAS,2,,,,,,,,,0,-8.1008494,-34.9280197
187,SEM VÍTIMA,FINALIZADA,2016-01-08,08:46:00,BOA VISTA,RUA BARAO DE SAO BORJA,49,ART EXPRESS. DE ESQUINA COM O HOSPITAL GOUVEIA DE BARROS,COLISÃO,SEM VÍTIMAS.,1,1,,,,,,,,0,-8.0617678,-34.8883419
188,COM VÍTIMA,FINALIZADA,2016-01-08,08:54:00,IMBIRIBEIRA,AV MARECHAL MASCARENHAS DE MORAES,1148,PROX A EMPRESA AUTOMAX SENTIDO AEROPORTO,COLISÃO,COLISAO COM 2 VITIMAS ENTRE AUTO E MOTO,1,1,,,,,,,,2,-8.0930351,-34.9092871
189,COM VÍTIMA,FINALIZADA,2016-01-08,09:02:00,CORDEIRO,RUA GOMES TABORDA,1758,E/F AO  COLEGIO VALENTI,ATROPELAMENTO,VITIMA  SOCORRIDA   PELO  SAMU,,,,,,,,,,1,-8.054557,-34.9261592
190,SEM VÍTIMA,FINALIZADA,2016-01-08,09:14:00,BOA VISTA,RUA DO RIACHUELO,,NO CRUZAMENTO DA RUA DO HOSPICIO/RUA DO RIACHUELO.,COLISÃO,SEM VÍTIMAS.,1,1,,,,,,,,0,-8.0587581,-34.8846108
191,SEM VÍTIMA,FINALIZADA,2016-01-08,09:26:00,AFOGADOS,RUA SAO MIGUEL,1357,E/F   AO  BODE  DO NO  SENTIDO  BARRO,COLISÃO,COLISÃO SEM VITIMAS,1,,,,,,,,1,0,-8.0809605,-34.9187036
192,SEM VÍTIMA,FINALIZADA,2016-01-08,09:55:00,MUSTARDINHA,RUA JOSE MOREIRA REIS,,E/F AO SESI DA MUSTARDINHA,COLISÃO,COLISAO CAMIAO E AUTO,1,,,,,1,,,,0,-8.0691976,-34.9157531
193,SEM VÍTIMA,FINALIZADA,2016-01-08,10:23:00,AREIAS,AV DR JOSE RUFINO,1326,E/F A FUNERÁRIA JOANA DARC NO LADO DIREITO DA VIA. SENTIDO AFOGADOS,COLISÃO,SEM VÍTIMAS.,1,,,,,,1,,,0,-8.0907287,-34.9351816
194,SEM VÍTIMA,FINALIZADA,2016-01-08,10:56:00,IPSEP,RUA JEAN EMILE FAVRE,110,EM FRENTE LIGUE PEÇAS,COLISÃO,COLISÃO SEM VITIMAS,1,,,,,,1,,,0,-8.105998,-34.9126305
195,SEM VÍTIMA,FINALIZADA,2016-01-08,11:18:00,VÁRZEA,AV AFONSO OLINDENSE,1927,E/F A SECRETARIA DE EDUCAÇÃO NO LADO DIREITO DA VIA. SENTIDO BR,COLISÃO,SEM VÍTIMAS.,2,,,,,,,,,0,-8.0479645,-34.9595015
196,SEM VÍTIMA,FINALIZADA,2016-01-08,12:14:00,ENCRUZILHADA,RUA CEARA,352,VINDO PELA AV NORTE SENTIDO MACAXEIRA APÓS AO EXTRA BOM 1 RUA A DIREITA.,COLISÃO,02 AUTOS,2,,,,,,,,,0,-8.0348872,-34.8936234
197,SEM VÍTIMA,FINALIZADA,2016-01-08,11:54:00,PINA,AV HERCULANO BANDEIRA,,NA ENTRADA  DO SHOPPING  RIO MAR,COLISÃO,COLISÃO  SEM VITIMAS,1,,,,,1,,,,0,-8.0883334,-34.8856892
198,SEM VÍTIMA,FINALIZADA,2016-01-08,12:36:00,VÁRZEA,RUA CAPITAO JOSE NOGUEIRA COSTA,,E/F A PORTARIA PRÓXIMO A SECRETARIA DE EDUCAÇÃO,ENGAVETAMENTO,01 CAMINHÃO E 02 AUTOS,2,,,,,,1,,,0,-8.0429925,-34.9580218
199,SEM VÍTIMA,FINALIZADA,2016-01-08,12:47:00,PINA,AV HERCULANO BANDEIRA,,PX AO ATACADO DOS PRESENTES - CRUZAMENTO C/ RUA NOGUEIRA DE SOUZA,COLISÃO,COLISAO ENTRE AUTOS,2,,,,,,,,,0,-8.0883334,-34.8856892
200,SEM VÍTIMA,FINALIZADA,2016-01-08,12:52:00,BOA VIAGEM,RUA LUIZ DE FARIA BARBOSA,364,PX ACADEMIA CORPO LIVRE,COLISÃO,COLISAO ENTRE AUTOS,2,,,,,,,,,0,-8.1103135,-34.8980429
201,SEM VÍTIMA,FINALIZADA,2016-01-08,14:18:00,MADALENA,RUA COMENDADOR BENTO AGUIAR,,ESQUINA COM O BAR ESPETINHO BENFICA,COLISÃO,01 AUTO 01 MOTO VT-11 NO LOCAL.,1,1,,,,,,,,0,-8.0596598,-34.9063889
202,SEM VÍTIMA,FINALIZADA,2016-01-08,15:05:00,IMBIRIBEIRA,AV MARECHAL MASCARENHAS DE MORAES,,E/F DA TOYOTA S/T JABOATAO,COLISÃO,OLISAO DE AUTO E CAMINHAO S/V,1,,,,,,1,,,0,-8.1134632,-34.912731
203,SEM VÍTIMA,FINALIZADA,2016-01-08,15:19:00,AFOGADOS,RUA SAO MIGUEL,102,E/F LOJAS AMERICANAS SENTIDO AFOGADOS,COLISÃO,01 AUTO E 01 VT DA POLÍCIA CIVIL,2,,,,,,,,,0,-8.0801883,-34.9075815
204,SEM VÍTIMA,FINALIZADA,2016-01-08,15:51:00,BOA VIAGEM,AV CONSELHEIRO AGUIAR,4777,EM FRENTE AO BRADESCO,COLISÃO,ONIBUS E AUTO,1,,,,,1,,,,0,-8.1303702,-34.9008415
205,SEM VÍTIMA,FINALIZADA,2016-01-08,16:00:00,TAMARINEIRA,RUA CONEGO BARATA,375,EM FRENTE AO EDF VILA MARIANA,COLISÃO,DOIS AUTOS,2,,,,,,,,,0,-8.0313303,-34.9023143
206,SEM VÍTIMA,FINALIZADA,2016-01-08,16:06:00,GRAÇAS,RUA ANTONIO NOVAIS,,E/F A PIZZARIA DOMINIO´S,COLISÃO,COLISAO ENTRO E DOIS AUTOS E UM CAMINHAO,2,,,,,,,,,0,-8.0438709,-34.9003879
207,SEM VÍTIMA,CANCELADA,2016-01-08,16:10:00,BOA VIAGEM,AV CONSELHEIRO AGUIAR,,E/F DO ITAU AO LAO DO HOLIDAY,COLISÃO,COLISAO DE MOTO AUTO S/V,1,1,,,,,,,,0,-8.1109937,-34.8914817
208,COM VÍTIMA,FINALIZADA,2016-01-08,16:20:00,CORDEIRO,RUA GOMES TABORDA,298,AO LADO DA JOKEY CLUBE,COLISÃO,COLISAO DE DUAS MOTOS COM 2 VITIMAS,,2,,,,,,,,1,-8.0578549,-34.9143356
209,SEM VÍTIMA,FINALIZADA,2016-01-08,17:13:00,IPSEP,AV RECIFE,,SENTIDO BR EM FRENTE A HONDA NA ENTRADA SDO IBURA,COLISÃO,AUTO E ÔNIBUS,1,,,,,1,,,,0,-8.1116174,-34.9264765
210,SEM VÍTIMA,FINALIZADA,2016-01-08,17:31:00,IMBIRIBEIRA,AV MARECHAL MASCARENHAS DE MORAES,,E/F DA FACULDADE  UNIVERSO AO LADO DA FIAT  ITALIANA  S/T AEROPORTO,COLISÃO,COLISAO DE DOIS AUTO S/V,2,,,,,,,,,0,-8.1134632,-34.912731
211,SEM VÍTIMA,FINALIZADA,2016-01-08,18:10:00,IPUTINGA,RUA MINISTRO JOAO ALBERTO,165,POR TRAS DO ATACADÃO NO RETORNO DO HOSPITAL SANTA TEREZINHA,COLISÃO,COLISÃO ENTRE UMA MOTO E UM CAMINHÃO C/V,1,1,,,,,,,,0,-8.035918,-34.9447851
212,SEM VÍTIMA,FINALIZADA,2016-01-08,18:29:00,CAMPO GRANDE,EST DE BELEM,1217,PROX. AO CRUZAMENTO DO COLEGIO JESUS CRUCIFICADO,COLISÃO,COLISÃO ENTRE AUTO E MOTO C/V,1,1,,,,,,,,0,-8.0320835,-34.8811905
213,COM VÍTIMA,FINALIZADA,2016-01-08,18:56:00,TAMARINEIRA,RUA DR JOSE MARIA,1038,PROX. AO HOSPITAL DA TAMARINEIRA,COLISÃO,COLISÃO ENTRE ONIBUS DA TRANCOL  E AUTO PASSEIO C/V,1,,,,,1,,,,1,-8.0349028,-34.9003985
214,SEM VÍTIMA,FINALIZADA,2016-01-08,19:16:00,BOA VIAGEM,AV CONSELHEIRO AGUIAR,,NO CRUZAMENTO COM ARTHUR MUNIZ,COLISÃO,COLISÃO ENTRE DOIS AUTO S/V NO CRUZAMENTO,2,,,,,,,,,0,-8.1109937,-34.8914817
215,COM VÍTIMA,FINALIZADA,2016-01-08,23:53:00,ESTÂNCIA,AV DR JOSE RUFINO,,PROX. A FÁBRICA YOLANDA,COLISÃO,COLISÃO ENTRE AUTO E MOTO,1,1,,,,,,,,2,-8.0853148,-34.9296104
216,SEM VÍTIMA,FINALIZADA,2016-01-09,06:08:00,BOA VIAGEM,RUA RIBEIRO DE BRITO,,CRUZ COM A  SIMOES  BARBOSA  E/F  AO EMPRESARIAL  MONTEIRO DE MELO,COLISÃO,COLISÃO   SEM  VITIMAS,2,,,,,,,,,0,-8.1230486,-34.903348
217,SEM VÍTIMA,FINALIZADA,2016-01-09,07:44:00,ÁGUA FRIA,EST VELHA DE AGUA FRIA,1609,E/F A PADARIA  PAM CRISTAL,COLISÃO,COLISÃO SEM VITIMAS,2,,,,,,,,,0,-8.0210368,-34.8964186
218,SEM VÍTIMA,FINALIZADA,2016-01-09,09:28:00,SAN MARTIN,AV GENERAL SAN MARTIN,,NO CRUZAMENTO DA ADBIAS DE CARVALHO SEMAFORO 058,COLISÃO,COLISÃO SEM VÍTIMA,2,,,,,,,,,0,-8.0683615,-34.9280654
219,SEM VÍTIMA,FINALIZADA,2016-01-09,09:36:00,TORRE,AV BEIRA RIO,,CRUZAMENTO C/ RUA CONDE DE IRAJÁ,COLISÃO,COLISÃO SEM VÍTIMA,,,,,,,,,,0,-8.0451478,-34.9044623
220,COM VÍTIMA,FINALIZADA,2016-01-09,10:24:00,JARDIM SÃO PAULO,AV SAO PAULO,527,E/F  AO SUPERMERCADO  RENDE MAIS,COLISÃO,COLISÃO COM 1 VITIMA  SOCORRIDO PELO SAMU,1,1,,,,,,,,1,-8.0817995,-34.9399265
221,COM VÍTIMA,FINALIZADA,2016-01-09,10:31:00,AREIAS,AV TAPAJOS,239,EM FRENTE AO HORTIFRUTI,COLISÃO,COLISÃO COM VÍTIMA,1,1,,,,,,,,1,-8.0918645,-34.9271498
222,SEM VÍTIMA,FINALIZADA,2016-01-09,11:02:00,ESPINHEIRO,RUA BARAO DE ITAMARACA,160,EM FRENTE AO EDIFICIO MARIO SCHENBERG,COLISÃO,COLISÃO SEM VÍTIMA/  GM RENATO SALES E ARLETE VAI FAZER O B.O,1,1,,,,,,,,0,-8.0434068,-34.893587
223,SEM VÍTIMA,FINALIZADA,2016-01-09,11:06:00,IMBIRIBEIRA,AV MARECHAL MASCARENHAS DE MORAES,884,SENTIDO  AFOGADOS   E/F A LOJA MARÇAL   ACESSORIOS,COLISÃO,COLISÃO  SEM VITIMAS,2,1,,,,,,,,0,-8.0904934,-34.9086196
224,SEM VÍTIMA,CANCELADA,2016-01-09,11:09:00,IBURA,AV DOIS RIOS,624,EM FRENTE AO POSTO DE GASOLINA TOTAL,COLISÃO,COLISÃO SEM VITIMAS,1,1,,,,,,,,0,-8.1132862,-34.9389586
225,SEM VÍTIMA,CANCELADA,2016-01-09,11:49:00,ILHA JOANA BEZERRA,VIADUTO CAPITAO TEMUDO,,SOBRE O VIADUTO DO CAPITAO TEMUDO S/T CABANGA,COLISÃO,DOIS AUTOS S/V,2,,,,,,,,,0,-8.0704524,-34.8960539
226,SEM VÍTIMA,CANCELADA,2016-01-09,12:17:00,CORDEIRO,AV CAXANGA,,SAÍDA DO CANAL DO CAVOCO SENTIDO DERBY,COLISÃO,02 AUTOS,2,,,,,,,,,0,-8.0472658,-34.9270223
227,SEM VÍTIMA,CANCELADA,2016-01-09,12:21:00,ALTO JOSÉ BONIFÁCIO,RUA ALTO JOSE BONIFACIO,702,PROX DO PPO DO ALTO JOSE BONIFACIO,COLISÃO,COLISAO DE ONIBUS E MOTO S/V,,1,,,,,,,,0,-8.0135699,-34.913094
228,SEM VÍTIMA,FINALIZADA,2016-01-09,12:48:00,BOA VIAGEM,AV BOA VIAGEM,,SEMAFARO 001,COLISÃO,COLISAO ENTRE AUTOS,2,,,,,,,,,0,-8.1012587,-34.885347
229,SEM VÍTIMA,FINALIZADA,2016-01-09,13:28:00,VÁRZEA,RUA JOAO FRANCISCO LISBOA,,POR TRAS DA IGREJA CATOLICA E O ANTIGO INSTITUTO GUARARAPES,COLISÃO,DOIS AUTO,2,,,,,,,,,0,-8.0512509,-34.958889
230,SEM VÍTIMA,FINALIZADA,2016-01-09,13:28:00,BOA VIAGEM,RUA DOS NAVEGANTES,,ATRAZ DO HOLIDAY,COLISÃO,COLISAO ENTRE AUTOS,2,,,,,,,,,0,-8.1197634,-34.8956066
231,SEM VÍTIMA,FINALIZADA,2016-01-09,14:03:00,CAXANGÁ,AV CAXANGA,2200,EM FRENTE AO PARQUE DE EXPOSIÇÃO,COLISÃO,DOIS AUTO,2,,,,,,,,,0,-8.046675,-34.92686
232,SEM VÍTIMA,FINALIZADA,2016-01-09,14:54:00,BOA VIAGEM,RUA WALDEMAR NERY CARNEIRO MONTEIRO,,CRUZ COM O SEMÁFORO 576 RUA DEZ DE JULHO,COLISÃO,02 AUTOS,2,,,,,,,,,0,-8.1374784,-34.9123075
233,COM VÍTIMA,FINALIZADA,2016-01-09,15:03:00,CASA FORTE,AV DEZESSETE DE AGOSTO,1766,EM FRENTE AO BAR REAL,COLISÃO,ONIBUS E AUTO,1,,,,,1,,,,1,-8.0334834,-34.9225822
234,SEM VÍTIMA,FINALIZADA,2016-01-09,15:57:00,SAN MARTIN,AV ENGENHEIRO ABDIAS DE CARVALHO,,SENTIDO CIDADE ANTES DO CRUZAMENTO DA GENERAL SAN MARTIN COM ABDIAS,COLISÃO,DOIS AUTOS,2,,,,,,,,,0,-8.0613623,-34.9292042
235,SEM VÍTIMA,FINALIZADA,2016-01-09,16:34:00,BOA VIAGEM,RUA VISCONDE DE JEQUITINHONHA,,APOS O PARUQE DONA LINDU,QUEDA DE ÁRVORE,QUEDA DE ARVORE AUXILIO DA CTTU,,,,,,,,,,0,-8.1384247,-34.9043899
236,SEM VÍTIMA,FINALIZADA,2016-01-09,17:12:00,TORRE,RUA PROFESSORA ANGELA PINTO,40,PROX. AO HOSPITAL EVANGELICO,COLISÃO,TRES AUTO,3,,,,,,,,,0,-8.0392873,-34.907909
237,COM VÍTIMA,FINALIZADA,2016-01-09,17:40:00,CORDEIRO,RUA MAURICIO DE NASSAU,,CRUZ COM A RUA ESTEVÃO COSTA PRÓX.: AO GOE,COLISÃO,02 AUTOS,2,,,,,,,,,1,-8.0413562,-34.9258757
238,SEM VÍTIMA,FINALIZADA,2016-01-09,18:59:00,AREIAS,AV RECIFE,1040,QUASE EM FRENTE A RESIDENCIAL IGNEZ ANDREAZZA SENTIDO AEROPORTO,ENGAVETAMENTO,COLISÃO ENTRE QUATRO AUTO S/V,4,,,,,,,,,0,-8.0954705,-34.9289699
239,COM VÍTIMA,FINALIZADA,2016-01-09,19:13:00,BOA VIAGEM,RUA DOS NAVEGANTES,447,AO LADO DO HOTEL CANÁRIOS,COLISÃO,COLISÃO ENTRE AUTO E MOTO C/V,1,1,,,,,,,,1,-8.1280883,-34.8990664
240,SEM VÍTIMA,FINALIZADA,2016-01-09,20:01:00,CASA FORTE,AV DEZESSETE DE AGOSTO,1548,ANTES DA PRAÇA VITORIA REGIA SENTIDO CIDADE EM FRENTE A PADARIA ENGENHO CASA FORTE,ENGAVETAMENTO,COLISÃO ENTRE QUATRO AUTO S/V,4,,,,,,,,,0,-8.0344225,-34.9208803
241,SEM VÍTIMA,FINALIZADA,2016-01-09,20:44:00,PAISSANDU,AV GOVERNADOR AGAMENON MAGALHAES,,EM FRENTE AO HOSPITAL PORTUGUES SENTIDO CIDADE SEMAFARO 069,COLISÃO,COLISÃO ENTRE DOIS AUTO S/V,2,,,,,,,,,0,-8.0630605,-34.8977617
242,SEM VÍTIMA,EM ATENDIMENTO,2016-01-10,04:14:00,AFOGADOS,RUA CONS FURTADO,,CRUZAMENTO COM A 21 DE ABRIL,COLISÃO,COLISÃO ENTRE UMA MOTO E UM AUTO SEM VÍTIMAS,1,1,,,,,,,,0,-8.0774063,-34.9106578
243,SEM VÍTIMA,FINALIZADA,2016-01-10,07:46:00,MACAXEIRA,AV NORTE,7730,E/F A ESCOLA ESTADUAL MARIA MALIA,CHOQUE,CHOQUE COM POSTE,1,,,,,,,,,0,-8.0143158,-34.9314022
244,SEM VÍTIMA,FINALIZADA,2016-01-10,08:26:00,JARDIM SÃO PAULO,PRAÇA DO JARDIM SAO PAULO,33,AO  LADO DA PRAÇA DE JARDIM SÃO PAULO,COLISÃO,COLISÃO SEM VITIMAS,2,,,,,,,,,0,-8.0820631,-34.93808969999998
245,SEM VÍTIMA,CANCELADA,2016-01-10,09:12:00,BOMBA DO HEMETÉRIO,RUA BOMBA DO HEMETERIO,539,MERCADINHO BOM GOSTO,COLISÃO,COL.S/V SET.CD,2,,,,,,,,,0,-8.0214338,-34.9011793
247,SEM VÍTIMA,CANCELADA,2016-01-10,09:56:00,CASA AMARELA,AV NORTE,182,E/F AO OFERTÃO SUPERMERCADO SENTIDO SUBÚRBIO.(SEMÁFORO Nº 065),COLISÃO,SEM VÍTIMAS.,,,,1,,,1,,,0,-8.023837,-34.912762
248,SEM VÍTIMA,FINALIZADA,2016-01-10,12:32:00,PARNAMIRIM,RUA MIZAEL MONTENEGRO,,AO LADO DO PÃO DE AÇÚCAR,COLISÃO,COLISÃO SEM VÍTIMA,1,1,,,,,,,,0,-8.0323254,-34.9087913
249,SEM VÍTIMA,CANCELADA,2016-01-10,13:08:00,CIDADE UNIVERSITÁRIA,RUA MARECHAL MANOEL LUIS OSORIO,,PROXÍMO AO COLEGIO PONTUAL,COLISÃO,COLISÃO SEM VÍTIMA,2,,,,,,,,,0,-8.0413433,-34.9451131
250,SEM VÍTIMA,FINALIZADA,2016-01-10,14:10:00,SÃO JOSÉ,AV N S DO CARMO,0,COM A MARTINS DE BARROS  / SEMAFORO 204,COLISÃO,DOIS AUTOS,2,,,,,,,,,0,-8.0660773,-34.8800303
251,SEM VÍTIMA,FINALIZADA,2016-01-10,14:13:00,,RUA MANOEL DE BRITO,,A DISPOSIÇÃO DO INSP MARTINS,,,,,,,,,,,,0,-8.0872048,-34.8886369
252,COM VÍTIMA,FINALIZADA,2016-01-10,15:17:00,TAMARINEIRA,RUA CONEGO BARATA,596,ANTES  DA FERREIRA COSTA,COLISÃO,AUTO E  MOTO,1,1,,,,,,,,1,-8.0301097,-34.9010631
253,SEM VÍTIMA,FINALIZADA,2016-01-10,15:43:00,BOA VIAGEM,RUA ERNESTO DE PAULA SANTOS,,E/F AO POSTO SETTA SÁIDA DO SHOPPING RECIFE.,COLISÃO,02 VEICULOS,2,,,,,,,,,0,-8.1241399,-34.9033405
254,SEM VÍTIMA,FINALIZADA,2016-01-10,16:27:00,BOA VIAGEM,AV HERCULANO BANDEIRA,,RUA NOGUEIRA DE SOUZA,COLISÃO,,2,,,,,,,,,0,-8.0883334,-34.8856892
255,SEM VÍTIMA,CANCELADA,2016-01-10,16:55:00,CASA AMARELA,CORREGO DO BARTOLOMEU,53,E/F AO NÚMERO 53,COLISÃO,01 AUTO 01 MOTO,1,1,,,,,,,,0,-8.023577,-34.91190610000001
256,SEM VÍTIMA,EM ATENDIMENTO,2016-01-10,17:16:00,BOA VIAGEM,AV BOA VIAGEM,5212,EM FRENTE A EDIFICIO TRANSATLÂNTICO/ VÉICULO VAZANDO COMBUSTIVEL,COLISÃO,COLISÃO SEM VÍTIMA,2,,,,,,,,,0,-8.1347592,-34.9015613
257,SEM VÍTIMA,FINALIZADA,2016-01-10,18:21:00,ESPINHEIRO,AV JOAO DE BARROS,2615,EM FRENTE A SUBSTAÇAO DA CELPE,COLISÃO,ONIBUS E AUTO,1,,,,,1,,,,0,-8.045765,-34.8900159
258,COM VÍTIMA,CANCELADA,2016-01-10,18:31:00,BARRO,AV DR JOSE RUFINO,88,EM FRENTE AO COLEGIO ALBERTO TORRES,COLISÃO,DOIS AUTO,2,,,,,,,,,1,-8.0839857,-34.9264589
259,SEM VÍTIMA,FINALIZADA,2016-01-10,19:00:00,BEBERIBE,AV BEBERIBE,1979,PROX. AO PATIO DA FEIRA DE AGUA FRIA EM FRENTE A MILENA MOVEIS (VEICULOS SE ENCONTRAN NO POSTO POLICIAL),COLISÃO,COLISÃO ENTRE DUAS MOTOS S/V,,2,,,,,,,,0,-8.0196711,-34.8945797
260,SEM VÍTIMA,FINALIZADA,2016-01-10,19:38:00,SÃO JOSÉ,RUA IMPERIAL,310,EM FRENTE A IGREJA MATRIZ DE SÃO JOSE NO SEMAFARO 414,COLISÃO,COLISÃO ENTRE DOIS AUTO S/V,2,,,,,,,,,0,-8.0730812,-34.8856025
261,SEM VÍTIMA,FINALIZADA,2016-01-10,21:27:00,IPUTINGA,RUA BOM PASTOR,265,PROX. A CHURRASCARIA CARRETA,COLISÃO,TRES AUTO,3,,,,,,,,,0,-8.043193,-34.939093
262,SEM VÍTIMA,FINALIZADA,2016-01-10,21:30:00,BOA VIAGEM,AV BOA VIAGEM,3278,EM AO ALFAIATE NO SEMAFORO 547,COLISÃO,COLISAO ENTRE TRES AUTO S/V,3,,,,,,,,,0,-8.1182895,-34.8941485
263,COM VÍTIMA,FINALIZADA,2016-01-10,21:33:00,CAMPO GRANDE,EST DE BELEM,,EM FRENTE COLEGIO JESUS CRUCIFICADO E O POSTO IPIRANGA,COLISÃO,CINQUENTINHA E AUTO,1,,,,,,,,,1,-8.0328726,-34.8843877
264,COM VÍTIMA,FINALIZADA,2016-01-10,21:35:00,ARRUDA,RUA DO MACHADO,106,POR TRAS DO CAMPO DO ARRUDA PROX. A PANIFICAÇÃO CENTRAL,COLISÃO,COLISÃO ENTRE AUTO E MOTO C/V,1,1,,,,,,,,1,-8.0248453,-34.8903467
265,SEM VÍTIMA,CANCELADA,2016-01-11,05:49:00,CASA AMARELA,AV NORTE,,CRUZAMENTO C/ RUA PADRE LEMOS - ENTRADA DO VASCO DA GAMA,CHOQUE,VEÍCULO COLIDIU COM PRISMA DE CONCRETO,,,,,,,,,,0,-8.0218418,-34.9163148
266,VÍTIMA FATAL,FINALIZADA,2016-01-11,05:53:00,ILHA DO RETIRO,AV ENGENHEIRO ABDIAS DE CARVALHO,,EM FRENTE A FACULDADE POLITECNICA DA UPE E PROX AO ESTADIO ILHA DO RETIRO,CHOQUE,MOTO CHOCOU-SE CONTRA PLACA DE MADEIRA,,1,,,,,,,,,-8.0621777,-34.9095643
267,SEM VÍTIMA,FINALIZADA,2016-01-11,06:00:00,CAMPO GRANDE,RUA MARQUES DE BAIPENDI,66,E/F A RESIDENCIA. AO LADO DO CALDINHO DA ZEZÉ.,CHOQUE,SEM VÍTIMAS. CHOCOU-SE CONTRA O MURO.,1,,,,,,,,,0,-8.0281469,-34.8871095
268,SEM VÍTIMA,FINALIZADA,2016-01-11,06:31:00,DERBY,AV GOVERNADOR AGAMENON MAGALHAES,,SENTIDO  BOA VIAGEM E/F A  PRAÇA  DO DERBY,COLISÃO,COLISÃO  SEM VITIMAS,1,,,,,1,,,,0,-8.056982,-34.8977316
269,SEM VÍTIMA,FINALIZADA,2016-01-11,09:04:00,ALTO JOSÉ BONIFÁCIO,RUA ALTO JOSE BONIFACIO,574,E/F A  ASSEMBLEIA DE DEUS,COLISÃO,COLISÃO  SEM VITIMAS,1,,,,,1,,,,0,-8.0147763,-34.9131162
270,SEM VÍTIMA,FINALIZADA,2016-01-11,10:22:00,ESPINHEIRO,RUA DO ESPINHEIRO,,CRUZ    COM  A  RUA SANTO ELIAS   E/F  AO BAR   VAGÃO,COLISÃO,COLISÃO  SEM VITIMAS,1,,,,,,1,,,0,-8.0444645,-34.8941401
271,SEM VÍTIMA,FINALIZADA,2016-01-11,10:27:00,SAN MARTIN,AV ENGENHEIRO ABDIAS DE CARVALHO,,CRUZAMENTO COM A AV. GENERAL SAN MARTIN NO SEMAFORO 058,COLISÃO,COLISÃO SEM VÍTIMA,2,,,,,,,,,0,-8.0613623,-34.9292042
272,SEM VÍTIMA,FINALIZADA,2016-01-11,11:16:00,CASA AMARELA,CORREGO DO BARTOLOMEU,518,EM FRENTE DO ATACAREJO E DA RODINHARODINHA,COLISÃO,COL.S/VSET CD,1,1,,,,,,,,0,-8.0197181,-34.91098899999997
273,SEM VÍTIMA,FINALIZADA,2016-01-11,11:41:00,PINA,AV ANTONIO DE GOES,,EM FRENTE AO POSTO FEDERAL,COLISÃO,COLISÃO ENTRE AUTO E ONIBUS SEM VITIMA,1,,,,,1,,,,0,-8.0856313,-34.8865511
274,SEM VÍTIMA,EM ATENDIMENTO,2016-01-11,12:14:00,BOA VISTA,AV GOVERNADOR AGAMENON MAGALHAES,,EM FRENTE AO COLEGIO AMERICANO BATISTA E O BOMPREÇO DO PARQUE AMORIM,COLISÃO,DOIS AUTO E CAMINHÃO AGENTE DE MONITORAMENTO SUB-INSPERTOR MOURA NO LOCAL,2,,,,,,,,,0,-8.0525603,-34.8954771
275,SEM VÍTIMA,FINALIZADA,2016-01-11,12:14:00,BOA VIAGEM,RUA DOS NAVEGANTES,136,COM ANTONIO FALÇCÃO,COLISÃO,DOIS AUTOS,2,,,,,,,,,0,-8.130675,-34.8998901
276,COM VÍTIMA,FINALIZADA,2016-01-11,12:22:00,MADALENA,RUA BENFICA,,EM FRENTE AO RESTAURANTE ESTRELA DO MAR E POR TRAS DO SUPERMERCADO EXTRA,COLISÃO,AUTO E MOTO,1,1,,,,,,,,1,-8.058062,-34.9051858
277,COM VÍTIMA,FINALIZADA,2016-01-11,12:27:00,CASA AMARELA,RUA PADRE LEMOS,,E/F AO MERCADO PUPLICO DE CASA AMARELA,COLISÃO,COLISAO ENTRE AUTO E MOTO,1,1,,,,,,,,2,-8.0231734,-34.9186584
278,SEM VÍTIMA,FINALIZADA,2016-01-11,12:41:00,NOVA DESCOBERTA,AV VEREADOR OTACILIO AZEVEDO,2310,E/F DO MERCADO PUBLICO E DA CASA DO BOLO,COLISÃO,COLISAO DE DOIS AUTOS S/V,2,,,,,,,,,0,-8.0004018,-34.9224657
279,SEM VÍTIMA,FINALIZADA,2016-01-11,13:02:00,CORDEIRO,RUA ANTERO MOTA,,DELEGACIA DE POLICIA DO CORDEIRO,CHOQUE,VEÍCULO CHOCOU-SE CONTRA OUTRO QUE ESTAVA ESTACIONADO NA DELEGACIA,,,,,,,,,,0,-8.0448815,-34.9267967
280,COM VÍTIMA,FINALIZADA,2016-01-11,13:26:00,CURADO,BR 101 (DENTRO DA CEASA),,E/F DO ATACADAO DA CESTA BASICA,ATROPELAMENTO,ATROPELAMENTO DE  MOTO COM UMA VITIMA,,1,,,,,,,,1,-8.0713528,-34.9423764
281,SEM VÍTIMA,FINALIZADA,2016-01-11,13:54:00,MADALENA,AV VISCONDE DE ALBUQUERQUE,,AO LADO DO BOMPREÇO NA AREA DE CARGA E DESCARGA,COLISÃO,COLISAO ENTRE ONIBUS E AUTO,1,,,,,1,,,,0,-8.0535603,-34.9067618
282,SEM VÍTIMA,FINALIZADA,2016-01-11,14:38:00,ÁGUA FRIA,EST VELHA DE AGUA FRIA,999,EM FRENTE AO DNOCS/  SENT  CIDADE,COLISÃO,DOIS AUTOS,2,,,,,,,,,0,-8.0266775,-34.8979331
283,SEM VÍTIMA,FINALIZADA,2016-01-11,14:41:00,MADALENA,RUA JOSE OSORIO,624,O CRUZAMENTO DA AV. CAXANGA COM A RUA JOSE OSORIO,COLISÃO,AUTO E CAMINHÃO,1,,,,,,1,,,0,-8.0537172,-34.9100904
284,COM VÍTIMA,EM ATENDIMENTO,2016-01-11,15:56:00,IPSEP,AV RECIFE,,NA SAIDA DO IBURA NO SEMAFORO 055,,COLISAO ENTRE ONIBUS E MOTO,,1,,,,1,,,,1,-8.1116174,-34.9264765
285,SEM VÍTIMA,FINALIZADA,2016-01-11,15:57:00,ILHA DO LEITE,AV GOVERNADOR AGAMENON MAGALHAES,4760,EM FRENTE DO HOSPITAL PORTUGUES,COLISÃO,AUTO E CAMINHÃO,1,,,,,,1,,,0,-8.0641897,-34.8984076
286,SEM VÍTIMA,FINALIZADA,2016-01-11,16:16:00,SANTO AMARO,AV GOVERNADOR AGAMENON MAGALHAES,,EM BAIXO DO VIADUTO  TACARUNA,COLISÃO COM CICLISTA,MOTO  E BICICLETA,1,,,1,,,,,,0,-8.0451621,-34.8892415
287,SEM VÍTIMA,EM ATENDIMENTO,2016-01-11,16:32:00,BOA VIAGEM,AV ENGENHEIRO DOMINGOS FERREIRA,4080,PROX. RESTAURANTE DON FERREIRA E CASA DE PALHA,COLISÃO,DOIS AUTO,2,,,,,,,,,0,-8.1244818,-34.9003169
288,SEM VÍTIMA,FINALIZADA,2016-01-11,16:56:00,ENCRUZILHADA,AV NORTE,2215,E/F AO BANCO DO BRASIL,COLISÃO,COLISAO ENTRE ONIBUS E AUTO,1,,,,,1,,,,0,-8.0388382,-34.8908679
289,SEM VÍTIMA,FINALIZADA,2016-01-11,17:04:00,TORRE,RUA JOSE BONIFACIO,,COM JOSÉ DE HOLANDA,COLISÃO,COLISÃO SEM VÍTIMA,2,,,,,,,,,0,-8.0436532,-34.9078584
290,COM VÍTIMA,EM ATENDIMENTO,2016-01-11,17:31:00,CAXANGÁ,AV CAXANGA,,PROX. A INTEGRAÇÃO DA CAXANGÁ EM BAIXO DO SEMAFORO 232,COLISÃO,AUTO E MOTO,1,1,,,,,,,,1,-8.0369093,-34.945404
291,SEM VÍTIMA,CANCELADA,2016-01-11,17:53:00,SAN MARTIN,AV ENGENHEIRO ABDIAS DE CARVALHO,,EM FRENTE A FUNASE SENTIDO CIDADE,COLISÃO,AUTO E ÔNIBUS,1,,,,,1,,,,0,-8.0613623,-34.9292042
292,COM VÍTIMA,EM ATENDIMENTO,2016-01-11,18:19:00,IPSEP,RUA JEAN EMILE FAVRE,116,ENFR A PADARIA PAO NORTE SEMAFORO 527,COLISÃO,MOTO E AUTO,1,1,,,,,,,,1,-8.1114058,-34.9198332
293,SEM VÍTIMA,CANCELADA,2016-01-11,19:08:00,BOA VIAGEM,AV FERNANDO SIMOES BARBOSA,1030,EM FRENTE A CASA DO CONDOMINIO,COLISÃO,COLISÃO ENTRE DOIS AUTO S/V,2,,,,,,,,,0,-8.1268759,-34.9019172
294,SEM VÍTIMA,FINALIZADA,2016-01-11,19:37:00,TORRE,RUA DR VICENTE FERREIRA,43,RUA PARALELA A REAL DA TORRE PROX. AO CARREFOUR,CHOQUE,VEICULO SE CHOCOU CONTRA O MURO DE UMA RESIDENCIA S/V,,,,,,,,,,0,-8.0448167,-34.910813
295,COM VÍTIMA,FINALIZADA,2016-01-11,20:02:00,SANTO ANTÔNIO,RUA FLORIANO PEIXOTO,,ENFR A CASA DA CULTURA E A ANTIGA ENTRADA DA ESTAÇÃO RECIFE,,CAMINHAO E MOTO,,1,,,,,1,,,1,-8.0651179,-34.8820284
296,SEM VÍTIMA,CANCELADA,2016-01-11,20:29:00,CASA FORTE,AV DEZESSETE DE AGOSTO,1270,ENFR FARMACIA DROGASIL,COLISÃO,DOIS AUTO,2,,,,,,,,,0,-8.0366392,-34.9195994
297,SEM VÍTIMA,FINALIZADA,2016-01-12,05:00:00,BOA VIAGEM,AV BOA VIAGEM,624,LOGO APÓS EDIFÍCIO ACAIACA,COLISÃO,CONDUTOR PERDEU O CONTROLE E COLIDIU EM DOIS CARRROS ESTACIONADOS,4,,,,,,,,,0,-8.0971285,-34.8837034
298,SEM VÍTIMA,FINALIZADA,2016-01-12,06:22:00,LINHA DO TIRO,RUA CORREGO DO SARGENTO,,E/F A  AGUA  MINERAL  LISBOA,CHOQUE,CONDUTOR  BATEU CONTRA  POSTE  SEM VITIMA,,,,,,,,,,0,-8.0100319,-34.9095309
299,SEM VÍTIMA,FINALIZADA,2016-01-12,06:53:00,IMBIRIBEIRA,AV MARECHAL MASCARENHAS DE MORAES,,SENTIDO  RECIFE  E/F AO  AEROPORTO,COLISÃO,COLISÃO   SEM VITIMAS,2,,,,,,,,,0,-8.1134632,-34.912731
300,SEM VÍTIMA,FINALIZADA,2016-01-12,06:58:00,SÃO JOSÉ,PRC SERGIO LORETO,,E/F  AO  ESTACIONAMENTO  DO ANTIGO MERCADO DAS FLORES  EM BAIXO DO SEMAFORO 035,COLISÃO,COLISÃO  SEM  VITIMAS,1,,,,,1,,,,0,-8.0727269,-34.8856711
301,COM VÍTIMA,FINALIZADA,2016-01-12,08:00:00,BOA VIAGEM,RUA DOS NAVEGANTES,,POR TRÁS DA CASA DO BRIGADEIRO,COLISÃO,COM UMA VÍTIMA. (GM'S JOSENILSON FARIAS E BRITO PONTO FIXO NO LOCAL),1,1,,,,,,,,1,-8.1197634,-34.8956066
302,SEM VÍTIMA,FINALIZADA,2016-01-12,08:11:00,SANTO AMARO,AV CRUZ CABUGA,,SENTIDO  CIDADE  E/F  AO  HOSPITAL  DO CANCER,COLISÃO,COLISÃO  SEM VITIMAS,1,,,,,1,,,,0,-8.0458417,-34.8757468
303,COM VÍTIMA,FINALIZADA,2016-01-12,08:16:00,SANTO AMARO,AV CRUZ CABUGA,,PROX  AO RETORNO  DO  SHOPPING   TACARUNA,COLISÃO,COLISÃO   COM  1 VITIMA,1,1,,,,,,,,2,-8.0458417,-34.8757468
304,COM VÍTIMA,FINALIZADA,2016-01-12,08:28:00,TORREÃO,RUA MARECHAL DEODORO,662,EM FRENTE A ESCOLA DOM CARLOS COELHO,COLISÃO COM CICLISTA,COLISÃO COM VÍTIMA,1,,,1,,,,,,1,-8.0357527,-34.8830864
305,SEM VÍTIMA,FINALIZADA,2016-01-12,08:44:00,CAXANGÁ,RUA RIBEIRO PESSOA,,EM FRENTE DA UPA DA CAXANGA,COLISÃO,COLISÃO SEM VÍTIMA,2,,,,,,,,,0,-8.0264249,-34.9568258
306,COM VÍTIMA,FINALIZADA,2016-01-12,08:45:00,CORDEIRO,AV CAXANGA,,SEMAFORO Nº080,COLISÃO,COL.C/VSET.CD,1,1,,,,,,,,1,-8.0472658,-34.9270223
307,SEM VÍTIMA,FINALIZADA,2016-01-12,09:29:00,CASA AMARELA,RUA CONS NABUCO,,CRUZAMENTO COM A PAULO GUERRA,CHOQUE,CAMINHÃO COLIDIU COM O SEMAFORO GM FLAVIO FARIAS ESTA NO LOCAL,,,,,,,1,,,0,-8.0294078,-34.9166953
308,SEM VÍTIMA,FINALIZADA,2016-01-12,10:03:00,IBURA,AV DOIS RIOS,106,,COLISÃO,MOTO X AUTO,1,1,,,,,,,,0,-8.1180113,-34.9423287
309,SEM VÍTIMA,FINALIZADA,2016-01-12,11:07:00,BOA VIAGEM,RUA PROFESSOR JULIO FERREIRA DE MELO,46,EM FRENTE DA CLINICA HIDORCENTRO DE TERAPIAS,COLISÃO,COLISÃO SEM VÍTIMA,1,,,,,,1,,,0,-8.1131475,-34.8971859
310,SEM VÍTIMA,FINALIZADA,2016-01-12,11:36:00,DOIS IRMÃOS,RUA MANUEL DE MEDEIROS,,SENTIDO  SUBURBIO  E/F AO COLEGIO  LIONS  PARNAMIRIM,COLISÃO,COLISÃO SEM VITIMAS,2,,,,,,,,,0,-8.0159034,-34.9501467
311,COM VÍTIMA,FINALIZADA,2016-01-12,12:47:00,PINA,RUA MANOEL DE BRITO,,PX AO BATALHAO DE POLICIA,COLISÃO,COLISAO CAMINHAO E MOTO,,1,,,,,1,,,1,-8.0872048,-34.8886369
312,COM VÍTIMA,FINALIZADA,2016-01-12,12:56:00,MADALENA,AV VISCONDE DE ALBUQUERQUE,401,E/F GALERIA MADALENA CENTER,COLISÃO,COLISAO ENTRE ONIBUS E AUTO,1,,,,,1,,,,5,-8.0545948,-34.9070896
313,SEM VÍTIMA,FINALIZADA,2016-01-12,13:13:00,AFOGADOS,EST DOS REMEDIOS,,AO LADO ESTAÇÃO DE METRÔ DE AFOGADOS SENTIDO MADALENA,COLISÃO,02 AUTOS,2,,,,,,,,,0,-8.0719351,-34.9079648
314,SEM VÍTIMA,FINALIZADA,2016-01-12,13:20:00,ARRUDA,AV PROFESSOR JOSE DOS ANJOS,1775,ESTACIONADOS NA VIA SUL VEÍCULOS,COLISÃO,MOTO E AUTO,1,1,,,,,,,,0,-8.0271293,-34.8961841
315,SEM VÍTIMA,FINALIZADA,2016-01-12,13:53:00,CABANGA,AV SUL,106,APOS O PONTILHAO DO CABANGA S/T CID,COLISÃO,COLISAO DE DOIS AUTOS S/V,2,,,,,,,,,0,-8.0729719,-34.8828046
316,SEM VÍTIMA,FINALIZADA,2016-01-12,14:10:00,BOA VIAGEM,RUA VISCONDE DE JEQUITINHONHA,1360,BEIRA CANAL PROX DA LOCALIZA S/T PIEDADE,COLISÃO,COLISAO DE DOIS AUTOS S/V,2,,,,,,,,,0,-8.1333528,-34.9029841
317,SEM VÍTIMA,CANCELADA,2016-01-12,14:48:00,IMBIRIBEIRA,RUA ANTONIO FALCAO,211,EM FRENTE A CASA DE FESTA PLANETA  KIDS / LADO DIREITO,COLISÃO,TRES AUTOS,3,,,,,,,,,0,-8.1118817,-34.9031489
318,SEM VÍTIMA,FINALIZADA,2016-01-12,14:54:00,BOA VISTA,RUA DA SANTA CRUZ,413,EF A IGREJA SANTA CRUZ,COLISÃO,COLISAO ENTRE AUTOS,2,,,,,,,,,0,-8.0625541,-34.8878699
319,SEM VÍTIMA,FINALIZADA,2016-01-12,14:59:00,SÃO JOSÉ,AV SUL,,EM FRENTE AS TORRES GEMIAS / SENT CIDADE,COLISÃO,DOIS  AUTOS,2,,,,,,,,,0,-8.0754329,-34.8906776
320,SEM VÍTIMA,FINALIZADA,2016-01-12,16:05:00,PINA,AV ANTONIO DE GOES,,103 SEMÁFORO / SENT CIDADE / EM FRETE AO BANCO DO BRASIL,COLISÃO,TRES AUTOS  / VT 17  GM TOMÁS  NO QTH,3,,,,,,,,,0,-8.0856313,-34.8865511
322,COM VÍTIMA,FINALIZADA,2016-01-12,17:34:00,ROSARINHO,RUA SAO SALVADOR,105,PROX DO CLUBE PORTUGUES,COLISÃO,COLISAO DE AUTO E MOTO S/V,1,1,,,,,,,,1,-8.0493867,-34.8949484
323,SEM VÍTIMA,CANCELADA,2016-01-12,18:05:00,BARRO,AV DR JOSE RUFINO,1507,PROX. AO MINI SHOPPING DE AREIAS,COLISÃO,AUTO E MOTO,1,1,,,,,,,,0,-8.091856,-34.9362803
324,SEM VÍTIMA,FINALIZADA,2016-01-12,18:54:00,GRAÇAS,AV CONS ROSA E SILVA,1550,PROX SHELL E BANCO ITAU SEMAFORO 214,COLISÃO,ONIBUS TRANSCOM E AUTO,1,,,,,1,,,,0,-8.0382592,-34.9004706
325,COM VÍTIMA,FINALIZADA,2016-01-12,21:38:00,SANTO ANTÔNIO,AV GUARARAPES,,CRUZAMENTO COM AV DANTAS BARRETO,COLISÃO,COLISÃO ENTRE AUTO E CINQUENTINHA,1,,1,,,,,,,1,-8.0634961,-34.8789289
326,SEM VÍTIMA,FINALIZADA,2016-01-13,06:13:00,JOANA BEZERRA,AV CENTRAL,,EM FRFENTE A AACD,COLISÃO,COLISÃO SEM VITIMAS,1,,,,,1,,,,0,-8.0738056,-34.8984773
327,SEM VÍTIMA,FINALIZADA,2016-01-13,06:38:00,PARNAMIRIM,RUA PADRE ROMA,,CRUZAMENTO DA RUA PADRE ROMA COM A RUA DO FUTURO SEM FRENTE AO POSTO DE SAÚDE ALBERTO SABIN,COLISÃO,COLISÃO SEM VITIMAS ENTRE AUTO E MICRO ONIBUS,,,,,,1,,,,0,-8.0334031,-34.9068576
328,SEM VÍTIMA,FINALIZADA,2016-01-13,07:20:00,IBURA,AV DOIS RIOS,,PROXÍMO AO POSTO BR/ SENTIDO BR,COLISÃO,COLISÃO SEM VÍTIMA/ GM TORRES E THIAGO ALBUQUERQUE NO LOCAL,1,,,,,,1,,,0,-8.1147915,-34.9398949
329,SEM VÍTIMA,CANCELADA,2016-01-13,09:50:00,AFOGADOS,RUA SAO MIGUEL,2149,E/F A BEZERRA REBOQUE NO LADODIREITO DA VIA. SENTIDO SUBÚRBIO. PORX. A FABERICA IOLANDA,COLISÃO,SEM VÍTIMAS.,2,1,,,,,,,,0,-8.0835156,-34.9250518
330,SEM VÍTIMA,FINALIZADA,2016-01-13,10:30:00,CAMPO GRANDE,RUA CATULO DA PAIXAO CEARENSE,497,EM FRENTE A RESIDENCIA AO LADO DO CANAL,COLISÃO,COLISÃO SEM VÍTIMA,1,,,,,,1,,,0,-8.037289,-34.8754451
331,SEM VÍTIMA,FINALIZADA,2016-01-13,10:32:00,ENCRUZILHADA,AV NORTE,,E/F AO EXTRA BOM SENTIDO CIDADE.,COLISÃO,SEM VÍTIMAS.,1,,,,,,,,1,0,-8.0373857,-34.8936992
332,SEM VÍTIMA,FINALIZADA,2016-01-13,10:37:00,PARNAMIRIM,AV DEZESSETE DE AGOSTO,,EM FRENTE A DROGASILSEMAFORO 358,COLISÃO,COLISÃO SEM VITIMA,1,,,,,1,,,,0,-8.0344504,-34.9211598
333,SEM VÍTIMA,FINALIZADA,2016-01-13,11:02:00,DERBY,AV GOVERNADOR AGAMENON MAGALHAES,,EM FRENTE AO 4575,COLISÃO,COLISÃO SEM VITIMA,1,,,,,,1,,,0,-8.056982,-34.8977316
334,SEM VÍTIMA,FINALIZADA,2016-01-13,11:03:00,BOA VIAGEM,AV ENGENHEIRO DOMINGOS FERREIRA,,SEMAFORO Nº200,COLISÃO,COL.S/V  SUB.ERNANDES JA NO LOCAL VT 12,2,,,,,,,,,0,-8.1111171,-34.8927465
335,COM VÍTIMA,FINALIZADA,2016-01-13,11:36:00,CAMPO GRANDE,RUA PROFESSOR FRANCISCO DA TRINDADE,,CRUZ COM A RUA CALUTO DA PAIXÃO,COLISÃO,COLISÃO COM VITIMA,1,1,,,,,,,,1,-8.034705,-34.8782299
336,SEM VÍTIMA,FINALIZADA,2016-01-13,12:02:00,CAXANGÁ,AV CAXANGA,774,AO LADO DA SULAMERICA,COLISÃO,COLISAO ENTRE MOTOS,,2,,,,,,,,0,-8.0532759,-34.9155516
338,SEM VÍTIMA,FINALIZADA,2016-01-13,13:04:00,IPUTINGA,RUA REAL DA TORRE,,CRUZ COM A RUA JOSÉ OSÓRIO,COLISÃO,COLISÃO SEM VITIMA,0,2,,,,,,,,0,-8.0489952,-34.9086515
339,SEM VÍTIMA,FINALIZADA,2016-01-13,13:09:00,BARRO,AV DR JOSE RUFINO,,E/F AO 4 BCON,COLISÃO,COLISAO ENTRE AUTOS,2,,,,,,,,,0,-8.0925031,-34.9469622
340,COM VÍTIMA,CANCELADA,2016-01-13,13:13:00,BRASÍLIA TEIMOSA,RUA DAGOBERTO PIRES,136,E/F DA ASSISTENCIA TECNICA DA CALOI,ATROPELAMENTO,ATROPELAMENTO DE MOTO COM UM CICLISTA,1,,,,,,,,,1,-8.0870374,-34.8813811
341,SEM VÍTIMA,FINALIZADA,2016-01-13,15:35:00,IMBIRIBEIRA,RUA ITACARI,,AO LADO  DO  ITAÚ /  ENTRADA DO IPSEP,COLISÃO,DOIS AUTOS,2,,,,,,,,,0,-8.1084248,-34.9138219
343,SEM VÍTIMA,FINALIZADA,2016-01-13,15:50:00,PINA,RUA MANOEL DE BRITO,,EM FRENTE AO MOTEL CORPUS,COLISÃO,CAMINHÃO E  AUTO,1,,,,,,1,,,0,-8.0872048,-34.8886369
344,SEM VÍTIMA,FINALIZADA,2016-01-13,15:55:00,SANTO AMARO,AV NORTE,654,PX AO SENAI,COLISÃO,COLISAO ENTRE FIORIO E CAMINHAO BAU,1,,,,,1,,,,0,-8.0485614,-34.8831074
345,SEM VÍTIMA,FINALIZADA,2016-01-13,16:16:00,TAMARINEIRA,EST VELHA DE AGUA FRIA,816,EM FRENTE AO DENOCS  /,COLISÃO,DOIS AUTOS,2,,,,,,,,,0,-8.027747,-34.8985838
346,SEM VÍTIMA,CANCELADA,2016-01-13,16:19:00,PINA,RUA MANOEL DE BRITO,,E/F AO MOTEL CORPUS,COLISÃO,COLISAO ENTRE AUTOS,1,,,,,,,,,0,-8.0872048,-34.8886369
347,SEM VÍTIMA,FINALIZADA,2016-01-13,16:35:00,AFOGADOS,EST DOS REMEDIOS,1143,E/F AO MERCADINHO PROGRESSO,COLISÃO,COLISAO ENTRE ONIBUS E AUTO,1,,,,,1,,,,0,-8.0700857,-34.9084684
348,SEM VÍTIMA,CANCELADA,2016-01-13,16:48:00,PINA,RUA MANOEL DE BRITO,,E/F AO MOTEL CORPUS,COLISÃO,COLISAO ENTRE AUTOS,2,,,,,,,,,0,-8.0872048,-34.8886369
349,SEM VÍTIMA,CANCELADA,2016-01-13,17:02:00,ILHA DO LEITE,AV GOVERNADOR AGAMENON MAGALHAES,,E/F AO HOSPITAL PORTUGUÊS SENTIDO BOA VIAGEM,COLISÃO,2 AUTOS,2,,,,,,,,,0,-8.064684,-34.8969725
350,SEM VÍTIMA,CANCELADA,2016-01-13,17:16:00,BOA VIAGEM,AV BOA VIAGEM,,PX AO SEMAFARO 027,COLISÃO,COLISAO ENTRE AUTOS,2,,,,,,,,,0,-8.1012587,-34.885347
351,SEM VÍTIMA,CANCELADA,2016-01-13,17:42:00,BOA VIAGEM,AV CONSELHEIRO AGUIAR,2502,PROX DO HOSPITAL PORTUGUES,COLISÃO,COLISAO DE DOIS AUTOS S/V,2,,,,,,,,,0,-8.1114112,-34.891856
352,SEM VÍTIMA,FINALIZADA,2016-01-13,17:27:00,BOA VIAGEM,AV HERCULANO BANDEIRA,,DPOIS DO VIADUTO  EM FRENTE O ATACADÃO,COLISÃO,DOIS AUTOS,2,,,,,,,,,0,-8.0883334,-34.8856892
353,COM VÍTIMA,EM ATENDIMENTO,2016-01-13,17:39:00,BEBERIBE,AV BEBERIBE,,E/F A DISNOVE E  AFERREIRA PINTO,COLISÃO,01 AUTO 01 MOTO,1,1,,,,,,,,1,-8.019391,-34.8942267
354,SEM VÍTIMA,FINALIZADA,2016-01-13,18:28:00,TAMARINEIRA,RUA SEBASTIAO ALVES,,SEMAFORO 421 CRUZAMENTO COM ESTRADA DO ARRAIAL,COLISÃO,DOIS AUTO,2,,,,,,,,,0,-8.0318381,-34.9062721
355,SEM VÍTIMA,EM ATENDIMENTO,2016-01-13,20:42:00,DOIS IRMÃOS,RUA DOIS IRMAOS,,SEMAFORO 416 PROX A CASA DE EDUARDO CAMPOS,COLISÃO,ONIBUS E AUTO,1,,,,,1,,,,0,-8.0166534,-34.9410943
356,SEM VÍTIMA,CANCELADA,2016-01-13,20:46:00,AFOGADOS,RUA SAO MIGUEL,,EM FRENTE A IPESO,COLISÃO,COLISÃO ENTRE AUTO E MOTO S/V,1,1,,,,,,,,0,-8.0807445,-34.9158613
357,SEM VÍTIMA,FINALIZADA,2016-01-13,20:48:00,SANTO AMARO,RUA MAJOR CODECEIRA,194,EM FRENTE AO LABORATORIO MUNICIPAL DE SAUDE PULBLICA,COLISÃO,COLISÃO ENTRE AUTO E MOTO S/V,1,1,,,,,,,,0,-8.0485707,-34.8875191
358,SEM VÍTIMA,FINALIZADA,2016-01-13,21:00:00,BOA VIAGEM,RUA ERNESTO DE PAULA SANTOS,,ENFR A PIZZARIA CAMILA E HI ACADEMIA SENTIDO AV BOA VIAGEM,COLISÃO,TAXI E PICAPE,2,,,,,,,,,0,-8.1241399,-34.9033405
359,SEM VÍTIMA,CANCELADA,2016-01-13,22:01:00,ILHA JOANA BEZERRA,AV DES GUERRA BARRETO,,PROX AO PREDIO AACD AV PRINCIPAL DO FORUM,COLISÃO,AUTO E MOTO,1,1,,,,,,,,0,-8.0718146,-34.8921116
360,COM VÍTIMA,FINALIZADA,2016-01-13,22:46:00,IMBIRIBEIRA,RUA JOSE DA SILVA LUCENA,,POR TRAS DO HIPER E PROX. AO ANTIGO COLEGIO ATUAL,CAPOTAMENTO,COLISÃO ENTRE AUTO E MOTO SEGUIDA DE UM CAPOTAMENTO. IC NO LOCAL,1,1,,,,,,,,2,-8.1143122,-34.9078843
361,SEM VÍTIMA,CANCELADA,2016-01-13,23:03:00,PAISSANDU,RUA PAISSANDU,667,ENFR A PIZZARIA ATLANTICO,COLISÃO,DOIS AUTO,2,,,,,,,,,0,-8.0623117,-34.8992023
362,SEM VÍTIMA,FINALIZADA,2016-01-14,08:09:00,CORDEIRO,RUA GREGORIO JUNIOR,178,E/F A RESIDENCIA E O RESIDENCIAL BRASILÂNDIA. NO LADO DIREITO DA VIA SENTIDO CAXANGÁ,COLISÃO,SEM VÍTIMAS,1,,,,,,,,1,0,-8.0529618,-34.9196889
363,SEM VÍTIMA,FINALIZADA,2016-01-14,08:10:00,BOA VISTA,RUA GERVASIO PIRES,356,PROX AO ESTACIONAMENTO  DO SHOPPING BOA VISTA  E/F A LOJA PRO RURAL,COLISÃO,COLISÃO  SEM  VITIMAS,2,,,,,,,,,0,-8.059322,-34.8861714
364,COM VÍTIMA,FINALIZADA,2016-01-14,08:13:00,IMBIRIBEIRA,AV MARECHAL MASCARENHAS DE MORAES,,NA DESCIDA  DO VIADUTO TANCREDO  NEVES  SENTIDO  BR 101,COLISÃO,COLISÃO  COM 1 VITIMA  SOCORRIDA PELO SAMU,1,1,,,,,,,,1,-8.1134632,-34.912731
365,SEM VÍTIMA,FINALIZADA,2016-01-14,09:47:00,DERBY,AV GOVERNADOR AGAMENON MAGALHAES,,SENTIDO  OLINDA  PROX  A CLINICA BIO FETO,COLISÃO,COLISÃO  SEM VITIMAS  GM FLAVIO MENDES  QTH,2,,,,,,,,,0,-8.056982,-34.8977316
366,SEM VÍTIMA,FINALIZADA,2016-01-14,11:20:00,BOA VISTA,RUA DO SOL,,POR TRAS DO TEATRO SANTA ISABEL,COLISÃO,COL.S/V  A CONDUTORA DO AUTO PASSEIO ESTA GESTANTE,1,,,,,1,,,,0,-8.061995,-34.8800084
367,SEM VÍTIMA,CANCELADA,2016-01-14,12:08:00,SÃO JOSÉ,C SANTA RITA,675,EM FRENTE AS TORRES GEMEAS SENTIDO OLINDA ( EDF. DUARTE COELHO),COLISÃO,ENTRE DOIS VEICULOS,2,,,,,,,,,0,-8.0716643,-34.8773554
368,SEM VÍTIMA,FINALIZADA,2016-01-14,12:15:00,SÃO JOSÉ,C SANTA RITA,,NO TERMINAL DE CAIS DE SANTA RITA,COLISÃO,COLISAO DE DOIS AUTOS S/V,2,,,,,,,,,0,-8.0704101,-34.8783087
369,SEM VÍTIMA,CANCELADA,2016-01-14,12:22:00,IMBIRIBEIRA,AV MARECHAL MASCARENHAS DE MORAES,,E/F A LASER ELETRO SENTIDO CIDADE,COLISÃO,2 AUTOS,2,,,,,,,,,0,-8.1134632,-34.912731
370,SEM VÍTIMA,CANCELADA,2016-01-14,12:27:00,SÃO JOSÉ,RUA IMPERIAL,1500,E/F AO ESTACIONAMENTO DA VENEZA PARAFUSOS,COLISÃO,COLISAO DE TRES AUTOS S/V,3,,,,,,,,,0,-8.0760664,-34.8947811
371,SEM VÍTIMA,CANCELADA,2016-01-14,12:48:00,CURADO,BR 101 (DENTRO DA CEASA),,PX AO SUPERMERCADO PAJEU,COLISÃO,COLISAO ENTRE AUTOS,2,,,,,,,,,0,-8.0713528,-34.9423764
372,SEM VÍTIMA,CANCELADA,2016-01-14,13:22:00,BOA VIAGEM,RUA SA E SOUZA,,CRUZAMENTO COM RUA PADRE CARAL,CHOQUE,01 CAMINHÃO CHOQUE COM POSTE FIOS DE ALTA TENSÃO SOBRE A VIA,,,,,,,1,,,0,-8.138206,-34.9068544
373,COM VÍTIMA,FINALIZADA,2016-01-14,13:56:00,IMBIRIBEIRA,AV MARECHAL MASCARENHAS DE MORAES,2967,E/F A FERREIRA COSTA SENTIDO AFOGADOS,COLISÃO,01 MOTO 01 AUTO,1,1,,,,,,,,1,-8.0948072,-34.9094135
375,SEM VÍTIMA,FINALIZADA,2016-01-14,14:45:00,BOA VIAGEM,AV ENGENHEIRO DOMINGOS FERREIRA,4140,CRUZ COM A ERNESTO DE PAULA SANTOS E/F AO RESTAURANTE DON FERREIRA,COLISÃO,01 AUTO 01 ONIBUS,1,,,,,1,,,,0,-8.1249429,-34.9004597
376,SEM VÍTIMA,FINALIZADA,2016-01-14,15:03:00,JORDÃO,RUA DAS FLORES,,ACESSO AO AITO DA JAQUEIRA,CHOQUE,VAM COLIDIU CO MURO POR FALTA DE FREIOOBSTRUINDO A VIA,,,,,,,,,,0,-8.1318241,-34.9347935
377,SEM VÍTIMA,CANCELADA,2016-01-14,15:03:00,MONTEIRO,AV DR EURICO CHAVES,143,PROX DA ANTONIO DA GRANJA E DA PAN RENATA,COLISÃO,COLISAO DE AUTO E MOTO S/V,1,1,,,,,,,,0,-8.0264747,-34.9275538
378,SEM VÍTIMA,FINALIZADA,2016-01-14,15:07:00,IPUTINGA,RUA PEREIRA COUTINHO FILHO,,TRANSVERSAL A AV MAURICIO DE NASSAU APÓS A LOMBADA ELETRONICA SENTIDO SUBÚRBIO.,COLISÃO,01 ONIBUS 01 AUTO,1,,,,,1,,,,0,-8.0360886,-34.9317173
379,SEM VÍTIMA,EM ATENDIMENTO,2016-01-14,15:34:00,BOA VIAGEM,AV CONSELHEIRO AGUIAR,3812,ESQUINA RUA BRUNO VELOSO PARADA 14,COLISÃO,01 AUTO 01 ONIBUS,1,,,,,1,,,,0,-8.1220098,-34.8981896
380,SEM VÍTIMA,FINALIZADA,2016-01-14,16:01:00,SANTO AMARO,AV CRUZ CABUGA,,E/F AO POSTO TOTAL AO LADO DO MERCADO PUPLICO DE SANTO AMARO,COLISÃO,COLISAO ENTRE AUTO E BRT,1,,,,,1,,,,0,-8.0458417,-34.8757468
381,SEM VÍTIMA,CANCELADA,2016-01-14,16:30:00,SANTO AMARO,AV CRUZ CABUGA,,E/F DO CEMITÉRIO DOS INGLESES,COLISÃO,COLISAO DE  ONIBUS E VAN S/V,,,,,,2,,,,0,-8.0458417,-34.8757468
382,SEM VÍTIMA,EM ATENDIMENTO,2016-01-14,16:35:00,CASA AMARELA,AV NORTE,,EM FRENTE AO SESC DE CASA AMARELA,COLISÃO,COLISAO ENTRE DOIS AUTOS,2,,,,,,,,,0,-8.0218418,-34.9163148
383,COM VÍTIMA,EM ATENDIMENTO,2016-01-14,16:53:00,AFOGADOS,RUA SAO MIGUEL,1709,PX MARAVILHA MOTOS,CHOQUE,CHOQUE DE AUTO COM POSTE,1,,,,,,,,,1,-8.0814172,-34.922014
384,COM VÍTIMA,FINALIZADA,2016-01-14,17:32:00,SANTO AMARO,RUA CAPITAO LIMA,,PX A TV JORNAL,COLISÃO,COLISAO ENTRE AUTO E MOTO,1,1,,,,,,,,1,-8.053663,-34.8787208
385,SEM VÍTIMA,FINALIZADA,2016-01-14,17:36:00,CAXANGÁ,AV CAXANGA,,E/F DO GOLF CLUBE S/T CAMARAGIBE,COLISÃO,COLISAO DE DOIS AUTOS S/V,2,,,,,,,,,0,-8.0369093,-34.945404
386,SEM VÍTIMA,CANCELADA,2016-01-14,18:08:00,CASA AMARELA,AV NORTE,,EM FRENTE O SESC,COLISÃO,ÔNIBUS E AUTO,1,,,,,,,,,0,-8.0218418,-34.9163148
387,SEM VÍTIMA,CANCELADA,2016-01-14,18:10:00,IMBIRIBEIRA,RUA ENGENHEIRO JOSE APOLINARIO,94,PROX. AO SINDICATO DOS TAXISTAS APOS A PONTE MOTOCOLOMBO SENTIDO BOA VIAGEM PRIMEIRA DIREITA PRIMEIRA ESQUERDA,COLISÃO,COLISÃO ENTRE DOIS AUTO S/V,2,,,,,,,,,0,-8.0850896,-34.9079601
388,COM VÍTIMA,FINALIZADA,2016-01-14,18:32:00,SÃO JOSÉ,RUA IMPERIAL,1220,CRUZAMENTO COM A RUA BOM SUCESSO,COLISÃO,COLISÃO ENTRE UMA AMBULANCIA UM AUTO E UMA MOTO C/V,2,1,,,,,,,,1,-8.0752077,-34.8923416
389,SEM VÍTIMA,FINALIZADA,2016-01-14,19:23:00,ESPINHEIRO,RUA BARAO DE ITAMARACA,,CRUZAMENTO COM RUA DO ESPINHEIRO,COLISÃO,COLISÃO ENTRE AUTO E ONIBUS DA CAXANGA S/V,1,,,,,1,,,,0,-8.0438295,-34.892832
390,SEM VÍTIMA,FINALIZADA,2016-01-14,19:42:00,BRASÍLIA TEIMOSA,AV BEIRA MAR,,TERMINAL DE BRASILIA TEIMOSA,COLISÃO,ONIBUS E AUTO,1,,,,,1,,,,0,-8.0808429,-34.8781008
390,SEM VÍTIMA,FINALIZADA,2016-01-14,19:42:00,BRASÍLIA TEIMOSA,AV BEIRA MAR,,TERMINAL DE BRASILIA TEIMOSA,COLISÃO,ONIBUS E AUTO,1,,,,,1,,,,0,-8.0808429,-34.8781008
391,SEM VÍTIMA,FINALIZADA,2016-01-14,20:26:00,ESTÂNCIA,AV RECIFE,,PROX AO SUPERMERCADO HIPER SENTIDO AEROPORTO SEMAFORO 494,COLISÃO,DOIS AUTO,2,,,,,,,,,0,-8.0815237,-34.9334022
392,COM VÍTIMA,FINALIZADA,2016-01-14,20:44:00,SANTO AMARO,AV CRUZ CABUGA,,AO LADO DO HOSPITAL DO CANCER E AO LADO DA PRAÇA,COLISÃO,DOIS AUTO E UMA MOTO   OBS: VT 12 DA CTTU  ESTA NO LOCAL,2,1,,,,,,,,1,-8.0458417,-34.8757468
393,COM VÍTIMA,FINALIZADA,2016-01-14,22:31:00,ROSARINHO,AV NORTE,,CRUZAMENTO COM A SANTOS DOMON SEMAFORO 081,COLISÃO,ONIBUS PEDROSA E MOTO,,1,,,,1,,,,1,-8.0339226,-34.8964289
394,SEM VÍTIMA,PENDENTE,2016-01-15,06:48:00,CAXANGÁ,AV CAXANGA,,NO CRUZAMENTO DO SEMAFORO 080,COLISÃO,COLISÃO SEM VÍTIMA,3,,,,,,,,,0,-8.0369093,-34.945404
395,SEM VÍTIMA,PENDENTE,2016-01-15,07:04:00,BOA VIAGEM,AV CONSELHEIRO AGUIAR,2394,EM FRENTE A FARMÁCIA DROGASIL,COLISÃO,COLISÃO SEM VITIMA,1,,,,,1,,,,0,-8.1105191,-34.8915979
396,COM VÍTIMA,PENDENTE,2016-01-15,12:31:00,CAMPO GRANDE,RUA JERONIMO VILELA,,SEMAFARO 282,COLISÃO,COLISAO ENTRE AUTO E MOTO,1,1,,,,,,,,1,-8.0282239,-34.8821278
397,SEM VÍTIMA,PENDENTE,2016-01-15,12:42:00,BOA VIAGEM,RUA ERNESTO DE PAULA SANTOS,1114,EM FRENTE AO IMPRESARIAL SERMOTEC,COLISÃO,DOIS AUTO,2,,,,,,,,,0,-8.1240755,-34.9060843
398,COM VÍTIMA,PENDENTE,2016-01-15,12:46:00,IPSEP,RUA DR RAPOSO PINTO,,PROX AO 19 BATALHÃO PM SENTIDO SUBÚRBIO,COLISÃO,01 AUTO 01 MOTO,1,1,,,,,,,,1,-8.1091752,-34.9224315
399,COM VÍTIMA,CANCELADA,2016-01-15,14:36:00,APIPUCOS,RUA DE APIPUCOS,568,PRÓXIMO AO ARCÁDIA E LAGOA DE APIPUCOS SENTIDO CIDADE.,COLISÃO,01 AUTO 01 MOTO (FOI PASSADO AO CONDUTOR A ENTRAR EM CONTATO COM O 190 PARA GERAR O DELTA). (,1,1,,,,,,,,1,-8.0229782,-34.9306665
400,SEM VÍTIMA,PENDENTE,2016-01-15,15:10:00,ILHA DO LEITE,RUA FRANCISCO ALVES,362,NA RUA DO HOSPITAL ESPERANÇA,ENTRADA E SAÍDA,VEICULO OBSTRUINDO  ENTRADA E SAIDA  DE GARAGEM  ART181,1,,,,,,,,,0,-8.0677176,-34.8928903
401,COM VÍTIMA,FINALIZADA,2016-01-15,19:56:00,ILHA DO LEITE,RUA FRANCISCO ALVES,,ENFR AO LADO DO HOSPITAL ESPERANÇA,COLISÃO,GOL VERMELHO E MOTO,1,1,,,,,,,,1,-8.0670766,-34.894225
402,SEM VÍTIMA,CANCELADA,2016-01-15,20:03:00,ILHA DO LEITE,RUA PAISSANDU,767,ENFR AO HOSPITAL APVIDA,COLISÃO,DOIS AUTO,2,,,,,,,,,0,-8.0622158,-34.900162
403,SEM VÍTIMA,FINALIZADA,2016-01-15,20:19:00,BOA VIAGEM,AV DES JOSE NEVES,567,EM FRENTE A PADARIA DONA ROSA,COLISÃO,COLISÃO ENTRE DOIS AUTO S/V,2,,,,,,,,,0,-8.1290691,-34.9102531
404,SEM VÍTIMA,FINALIZADA,2016-01-15,20:33:00,SANTO AMARO,AV GOVERNADOR AGAMENON MAGALHAES,,EM FRENTE AO POSTO DISLUB SENTIDO OLINDA,COLISÃO,COLISÃO ENTRE DOIS AUTO S/V,2,,,,,,,,,0,-8.0451621,-34.8892415
405,SEM VÍTIMA,FINALIZADA,2016-01-15,20:43:00,BEBERIBE,AV BEBERIBE,3910,PROX A PIZZARIA ROUCHE,COLISÃO,FAIT UNO X POLO COM UMA CARROCINHA DE REBOQUE,2,,,,,,,,,0,-8.0117081,-34.8892666
406,SEM VÍTIMA,FINALIZADA,2016-01-15,22:06:00,DOIS IRMÃOS,RUA DOIS IRMAOS,,PROX. AO MOTEL SENZALA EM BAIXO DO VIA DUTO,COLISÃO,COLISÃO ENTRE ONIBUS TRANSCOL E AUTO S/V,1,,,,,1,,,,0,-8.0166534,-34.9410943
407,SEM VÍTIMA,CANCELADA,2016-01-15,22:30:00,IMBIRIBEIRA,RUA JOAO FONTES,94,AO LADO DA IPOG,COLISÃO,COLISÃO ENTRE DOIS AUTO S/V,2,,,,,,,,,0,-8.1252794,-34.9141511
408,COM VÍTIMA,FINALIZADA,2016-01-15,22:34:00,SANTO AMARO,AV GOVERNADOR AGAMENON MAGALHAES,,SENTIDO OLINDA PROX AO VIADUTO E ENFR A RECEITA FEDERAL,COLISÃO,TRES AUTO E UMA MOTO,3,1,,,,,,,,1,-8.0451621,-34.8892415
409,SEM VÍTIMA,CANCELADA,2016-01-15,23:25:00,ESPINHEIRO,RUA CONS PORTELA,,EM FRENTE AO CREMEPE E PROX DO POSTO DE COMBUSTIVEL TOTAL,COLISÃO,COLISAO ENTRE DOIS AUTOS,2,,,,,,,,,0,-8.0418241,-34.894113
410,SEM VÍTIMA,FINALIZADA,2016-01-16,00:13:00,ENGENHO DO MEIO,RUA BOM PASTOR,,NAS PROCIMIDADES DO INSTITUTO BOM PASTOR,COLISÃO,COLISAO ENTRE DOIS AUTOS,2,,,,,,,,,0,-8.0501234,-34.9394428
411,SEM VÍTIMA,FINALIZADA,2016-01-16,01:24:00,IMBIRIBEIRA,RUA ARQUITETO LUIZ NUNES,,NO SEMAFORO 537,COLISÃO,COLISAO ENTRE DOIS AUTOS,2,,,,,,,,,0,-8.0927682,-34.9110955
412,SEM VÍTIMA,FINALIZADA,2016-01-16,01:49:00,DERBY,AV GOVERNADOR AGAMENON MAGALHAES,,PROX A RESTAURAÇÃO NA FAIXA LOCAL,CHOQUE,VEICULO CHOCOU-SE CONTRA UM GELO BAINO QUE ESTA NO MEIO DA VIA PODENDO OCASIONAR OUTRO ACIDENTE,1,,,,,,,,,0,-8.056982,-34.8977316
413,SEM VÍTIMA,FINALIZADA,2016-01-16,03:38:00,MACAXEIRA,AV NORTE,,PROX AO RESTAURANTE BOIZAO EM FRENTE A ESCOLA JARDIM COLAVE,COLISÃO,COLISAO ENTRE DOIS AUTOS,2,,,,,,,,,0,-8.0159377,-34.9303999
414,SEM VÍTIMA,FINALIZADA,2016-01-16,05:25:00,CORDEIRO,AV CAXANGA,,NO SEMAFORO 235,COLISÃO,COLISAO ENTRE TRES AUTOS,3,,,,,,,,,0,-8.0472658,-34.9270223
415,SEM VÍTIMA,FINALIZADA,2016-01-16,07:30:00,AREIAS,AV RECIFE,,SENTIDO  CIDADE  UNIVERSITARIA  DE FRONTE  AO HIPER BOM PREÇO,COLISÃO,COLISÃO  SEM VITIMAS,3,,,,,,,,,0,-8.1008494,-34.9280197
417,SEM VÍTIMA,FINALIZADA,2016-01-16,08:39:00,ALTO SANTA TERESINHA,RUA TAMBOARA,556,E/F A UNIDADE DE SAÚDE DO ALTO DO PASCOAL,COLISÃO,SEM VÍTIMAS,2,,,,,,,,,0,-8.0166828,-34.906116
418,SEM VÍTIMA,FINALIZADA,2016-01-16,08:50:00,SAN MARTIN,AV GENERAL SAN MARTIN,,EM  BAIXO DO  SEMAFORO  326   E/F A   CAVALARIA,COLISÃO,COLISÃO  SEM VITIMAS,1,,,,,,1,,,0,-8.0683615,-34.9280654
419,COM VÍTIMA,FINALIZADA,2016-01-16,08:52:00,BOA VIAGEM,AV ENGENHEIRO DOMINGOS FERREIRA,2312,EM FRENTE DA ACADEMIA SANTÉ,COLISÃO,COLISÃO COM VITIMA,2,,,,,,,,,2,-8.1107446,-34.8925811
420,COM VÍTIMA,CANCELADA,2016-01-16,09:10:00,BOA VIAGEM,AV ENGENHEIRO DOMINGOS FERREIRA,,CRUZAMENTO COM A RUA BENVINDA DE FARIAS,COLISÃO,COLISAO COM VITIMA ENTRE 2 AUTOS,2,,,,,,,,,1,-8.1111171,-34.8927465
421,COM VÍTIMA,FINALIZADA,2016-01-16,09:48:00,IMBIRIBEIRA,RUA SARGENTO SILVINO DE MACEDO,,SENTIDO  RESIDENCIAL  BOA VIAGEM  PROX A  LOJA  DE VINHOS  LACOMEX,COLISÃO,COLISÃO  COM 1 VITIMA  A ESPERA DO SAMU,1,1,,,,,,,,1,-8.1120472,-34.9066839
422,SEM VÍTIMA,FINALIZADA,2016-01-16,10:10:00,ENCRUZILHADA,AV JOAO DE BARROS,,EM FRENTE AO ITAU,COLISÃO,COLISÃO SEM VÍTIMA,1,1,,,,,,,,0,-8.0383114,-34.8918376
423,SEM VÍTIMA,CANCELADA,2016-01-16,11:46:00,AFOGADOS,RUA COSME VIANA,,EM FRENTE A TUPAN,COLISÃO,COLISÃO SEM VÍTIMA,2,,,,,,,,,0,-8.0710914,-34.9094767
424,COM VÍTIMA,FINALIZADA,2016-01-16,12:33:00,IPUTINGA,AV CAXANGA,,EM FRENTE AO HOSPITAL SANTA TEREZINHA,COLISÃO,ENTREUM AUTO E UMA MOTO,1,1,,,,,,,,1,-8.041958,-34.9366383
425,SEM VÍTIMA,CANCELADA,2016-01-16,12:52:00,PINA,RUA ARTUR LICIO,20,PRIMEIRA RUA HA ESQUERDA APÓS O BANHISTAS DO PINA,COLISÃO,COLISÃO SEM VITIMAS,2,,,,,,,,,0,-8.0900624,-34.8887741
426,SEM VÍTIMA,FINALIZADA,2016-01-16,13:28:00,SANCHO,RUA PAULINO DE FARIAS,260,PROX DO BAR DO SEU PEDRO E DA PANIFICADORA DO EDINHO,COLISÃO,COLISAO DE MOTO E AUTO S/V,1,1,,,,,,,,0,-8.0852319,-34.9667928
427,SEM VÍTIMA,FINALIZADA,2016-01-16,14:24:00,BOA VISTA,AV GOVERNADOR AGAMENON MAGALHAES,,EM FRENTE AO CIRCULO MILITAR / SENTIDO OLINDA,COLISÃO,COLISÃO SEM VÍTIMA,,,,,,,,,,0,-8.0525603,-34.8954771
428,SEM VÍTIMA,FINALIZADA,2016-01-16,14:36:00,BOA VIAGEM,AV BOA VIAGEM,3650,PROX AO HOTEL INTERANCIONAL PALACE,COLISÃO,ENTRE 4 VEICULOS,4,,,,,,,,,0,-8.1213793,-34.8959899
429,SEM VÍTIMA,FINALIZADA,2016-01-16,15:01:00,DERBY,AV GOVERNADOR AGAMENON MAGALHAES,,PROX A CHURRASCARIA SPETUS SENTIDO BOA VIAGEM,COLISÃO,ENTRE UM CAMINHÃO E UM AUTO,1,,,,,,1,,,0,-8.056982,-34.8977316
430,SEM VÍTIMA,FINALIZADA,2016-01-16,15:42:00,BOA VIAGEM,RUA MARIA CAROLINA,,CRUZAMENTO COM A RUA MINISTRO NELSON HUNGRIA,COLISÃO,COLISÃO SEM VÍTIMA,2,,,,,,,,,0,-8.113999,-34.8967903
431,SEM VÍTIMA,CANCELADA,2016-01-16,16:01:00,CORDEIRO,RUA FRANCISCO VITA,,EM FRENTE AO Nº363,COLISÃO,COLISÃO SEM VÍTIMA,2,,,,,,,,,0,-8.0522833,-34.9262369
432,SEM VÍTIMA,EM ATENDIMENTO,2016-01-16,16:35:00,ESPINHEIRO,AV JOAO DE BARROS,,CRUZAMENTO COM DO ESPINHEIRO,COLISÃO,AUTO X ONIBUS,1,,,,,1,,,,0,-8.0416991,-34.891244
433,SEM VÍTIMA,FINALIZADA,2016-01-16,16:41:00,BOA VIAGEM,RUA PROFESSOR AUGUSTO LINS E SILVA,764,PROXIMO A PADARIA PAN JOVEM,COLISÃO,ENTRE DOIS AUTOS,2,,,,,,,,,0,-8.1438498,-34.9074029
434,SEM VÍTIMA,FINALIZADA,2016-01-16,17:03:00,BOA VIAGEM,RUA MARQUES DE VALENCA,9,UMA EQUINA ANTES DO POSTO IPIRANGA,COLISÃO,COLISÃO SEM VÍTIMA,2,,,,,,,,,0,-8.1291692,-34.9028478
435,COM VÍTIMA,FINALIZADA,2016-01-16,18:34:00,TORRE,RUA CONDE DE IRAJA,301,PROX. A ESCOLA CRIATIVA,COLISÃO,AUTO E MOTO,1,1,,,,,,,,1,-8.0459747,-34.9063914
436,SEM VÍTIMA,CANCELADA,2016-01-16,20:03:00,GRAÇAS,AV RUI BARBOSA,6345,AO LADO DA PONTE DE UCHOA E COLEGIO DAMAS,COLISÃO,AUTO E ONIBUS,1,,,,,1,,,,0,-8.0466582,-34.9012379
437,SEM VÍTIMA,CANCELADA,2016-01-16,21:12:00,MADALENA,RUA BENFICA,,EM FRENTE AO EXTRA SENTIDO CAXANGÁ,COLISÃO,COLISÃOENTRE DOIS AUTO S/V UM DOS CONDUTORES APRESENTA SINAIS DE EMBRIAGUEZ.,2,,,,,,,,,0,-8.058062,-34.9051858
438,SEM VÍTIMA,FINALIZADA,2016-01-16,22:49:00,MADALENA,RUA BENFICA,715,ESTACIONAMENTO DO SUPERMERCADO EXTRA AREA G 2,COLISÃO,DOIS AUTO,2,,,,,,,,,0,-8.0593306,-34.9051664
439,COM VÍTIMA,FINALIZADA,2016-01-16,23:45:00,ARRUDA,AV BEBERIBE,,LOGO APOS O CAMPO DO SANTA CRUZNO SEMAFORO 492,COLISÃO,COLISAO ENTRE UM AUTO E MOTO,1,1,,,,,,,,1,-8.0262857,-34.8932578
440,COM VÍTIMA,FINALIZADA,2016-01-17,05:26:00,AREIAS,AV DR JOSE RUFINO,,NO SEMAFORO 044,COLISÃO,COLISAO ENTRE UM ONIBUS E UM AUTO,1,,,,,1,,,,1,-8.0899501,-34.9342698
441,SEM VÍTIMA,FINALIZADA,2016-01-17,07:07:00,JORDÃO,AV MARIA IRENE,611,PROX. AO QUARTEL DA AERONALTICA,COLISÃO,COLISÃO ENTRE DOIS AUTO S/V,2,,,,,,,,,0,-8.1406155,-34.9271229
442,COM VÍTIMA,CANCELADA,2016-01-17,07:08:00,IBURA,AV DOIS RIOS,984,EM FRENTE A FARMACIA BIG BEM,COLISÃO,COLISÃO COM VITIMA,1,1,,,,,,,,1,-8.1161009,-34.9408956
443,SEM VÍTIMA,FINALIZADA,2016-01-17,07:41:00,BOA VISTA,RUA SETE DE SETEMBRO,428,ESQUINA COM RUA DO RIACHUELO AO LADO DA FACULDADE DE DIREITO,COLISÃO,COLISÃO ENTRE VIATURA DA PM E AUTO S/V,2,,,,,,,,,0,-8.0595357,-34.8823013
444,SEM VÍTIMA,FINALIZADA,2016-01-17,09:59:00,CASA AMARELA,RUA DOIS DE FEVEREIRO,271,E/F  AO  COLEGIO CAMINHO DIDATICO,COLISÃO,COLISÃO  SEM VITIMAS,1,,,,,,1,,,0,-8.018253,-34.917732
445,SEM VÍTIMA,CANCELADA,2016-01-17,12:17:00,IPUTINGA,EST DO CAIARA,,COLEGIO JÃO 23,COLISÃO,DOIS AUTOS SEM VITIMAS,2,,,,,,,,,0,-8.0429038,-34.9311588
447,SEM VÍTIMA,CANCELADA,2016-01-17,12:35:00,CAXANGÁ,AV CAXANGA,,PROXIMOA FACULDADE FAFIPE,COLISÃO,ENTRE DOIS VEICULOS/,,,,,,,,,,0,-8.0369093,-34.945404
448,SEM VÍTIMA,CANCELADA,2016-01-17,14:05:00,SANTO AMARO,AV GOVERNADOR AGAMENON MAGALHAES,,EM FRENTE A UNICORDSSENT/BOA VIAGEM,COLISÃO,SEM VITIMAS,1,1,,,,,,,,0,-8.0451621,-34.8892415
449,SEM VÍTIMA,FINALIZADA,2016-01-17,14:46:00,BOA VIAGEM,RUA BARAO DE SOUZA LEAO,1259,EDF. VILA REAAL,COLISÃO,ENTRE DIS VEICULOS,2,,,,,,,,,0,-8.1330354,-34.9113925
450,SEM VÍTIMA,FINALIZADA,2016-01-17,15:14:00,DERBY,RUA JENER DE SOUZA,,PROX. AO QUARTEL DO DERBY,COLISÃO,AUTO E CAMINHÃO,1,,,,,,1,,,0,-8.0565596,-34.9000396
451,SEM VÍTIMA,FINALIZADA,2016-01-17,16:08:00,DERBY,AV GOVERNADOR AGAMENON MAGALHAES,,COM A ENRIQUE DIAS,COLISÃO,ENTRE UM AUTO E UMA MOTO,1,1,,,,,,,,0,-8.056982,-34.8977316
452,SEM VÍTIMA,FINALIZADA,2016-01-17,18:09:00,ENCRUZILHADA,AV NORTE,2157,EM FRENTE A RENOW CONCESIONARIA,COLISÃO,ONIBUS E MOTO,,1,,,,,1,,,0,-8.0388382,-34.8908679
453,COM VÍTIMA,FINALIZADA,2016-01-17,19:50:00,CASA AMARELA,AV NORTE,5010,ANTES DO RESTAURANTE REI DA PICANHA EM FRENTE A MOTOPARCK,ATROPELAMENTO,MOTO E PEDESTRE VITIMAS JA SOCORRIDAS,,1,,,,,,,,3,-8.024416,-34.910428
454,SEM VÍTIMA,FINALIZADA,2016-01-17,20:14:00,BOA VIAGEM,RUA DES JOAO PAES,815,PROX NA RUA DO FERREIRA PINTO NO CANAL,COLISÃO,ONIBUS BORBOREMA X AUTO,1,,,,,,1,,,0,-8.1262152,-34.9062147
455,SEM VÍTIMA,FINALIZADA,2016-01-17,21:35:00,IPSEP,AV RECIFE,,ENFR AO BALCÃO RECIFE DEPOIS DA PIZZARIA ATLANTICO,COLISÃO,QUATRO AUTO PASSEIOS,4,,,,,,,,,0,-8.1116174,-34.9264765
456,SEM VÍTIMA,FINALIZADA,2016-01-17,21:40:00,MADALENA,RUA CONDE DE IRAJA,486,APOS O CUZAMENTO COM A JOSE BONIFACIO,COLISÃO,DOIS AUTO,2,,,,,,,,,0,-8.0459988,-34.9080635
457,SEM VÍTIMA,CANCELADA,2016-01-17,22:02:00,VÁRZEA,RUA GASTAO VIDIGAL,,EM FRENTE A ASSEMBLEIA DE DEUS,COLISÃO,AUTO E MOTO,1,1,,,,,,,,0,-8.0350092,-34.9614377
458,SEM VÍTIMA,CANCELADA,2016-01-17,22:24:00,ARRUDA,RUA SAO BENTO,,SEMAFORO 064,COLISÃO,TRES AUTO,3,,,,,,,,,0,-8.0235319,-34.8957077
459,SEM VÍTIMA,CANCELADA,2016-01-18,02:03:00,IMBIRIBEIRA,AV MARECHAL MASCARENHAS DE MORAES,,EM FRENTE MITISUBICH // EM FRENTE A RENAULT,COLISÃO,COLISÃO ENTRE UM TÁXI E AUTO-PASSEIO SEM VÍTIMAS,2,,,,,,,,,0,-8.1134632,-34.912731
460,SEM VÍTIMA,FINALIZADA,2016-01-18,05:03:00,BOA VIAGEM,AV MARECHAL MASCARENHAS DE MORAES,,EM FRENTE AO AEROPORTO LOGO APOS O VIADUTO TANCREDO NEVES,COLISÃO,COLISAO ENTRE DOIS AUTOS,2,,,,,,,,,0,-8.1355789,-34.916717
461,SEM VÍTIMA,FINALIZADA,2016-01-18,06:33:00,IPSEP,AV RECIFE,3096,EM FRENTE DA OFICINA ALINHAUTO,COLISÃO,COL.S/VSET.BR,1,,,,1,,,,,0,-8.1035803,-34.9275753
462,SEM VÍTIMA,FINALIZADA,2016-01-18,06:42:00,CORDEIRO,AV CAXANGA,,NO SEMAFORO 236 SENT/SUB,COLISÃO,COLISÃO SEM VITIMAS ENTRE UM ONIBUS DA PREFEITURA DE QUIPAPÁ E UM AUTO-PASSEIO,1,,,,1,,,,,0,-8.0472658,-34.9270223
463,SEM VÍTIMA,FINALIZADA,2016-01-18,06:49:00,DERBY,AV GOVERNADOR AGAMENON MAGALHAES,,EM FRENTE AO CERPE,COLISÃO,COLISÃO SEM VÍTIMA / SENTIDO BOA VIAGEM,2,,,,,,,,,0,-8.056982,-34.8977316
464,SEM VÍTIMA,FINALIZADA,2016-01-18,07:53:00,CAXANGÁ,AV CAXANGA,1985,EM FRETE AO NUCLEO DE SAÚDE CIAC,COLISÃO,COLISÃO SEM VÍTMA / SENTIDO CIDADE,1,1,,,,,,,,0,-8.0484069,-34.9252047
465,COM VÍTIMA,FINALIZADA,2016-01-18,07:54:00,IBURA,AV JORNALISTA COSTA PORTO,,E/F A    COMPESA,COLISÃO,COLISÃO  COM 1 VITIMA  A ESPERA  DO SAMU,,2,,,,,,,,1,-8.1112213,-34.9580582
466,SEM VÍTIMA,FINALIZADA,2016-01-18,08:37:00,TORREÃO,RUA DJALMA FARIAS,279,POR TRAS DO UNICORDSCRUZ/COM RUA PROF.OTHON PARAISO,COLISÃO,COLISÃO SEM VITIMA,2,,,,,,,,,0,-8.0397789,-34.883868
468,SEM VÍTIMA,FINALIZADA,2016-01-18,09:25:00,PAISSANDU,RUA GENERAL JOAQUIM INACIO,,SEMAFORO 069,COLISÃO,COLISÃO SEM VITIMA SUB INSPETOR  VALDEMIR FAZENDO B.O,2,,,,,,,,,0,-8.0626672,-34.8959894
469,SEM VÍTIMA,FINALIZADA,2016-01-18,09:25:00,BOA VISTA,RUA DO RIACHUELO,,EEM FRENTE DO COLEGIO 2001,COLISÃO,COL.S/VSET.BR,2,,,,,,,,,0,-8.0587581,-34.8846108
470,SEM VÍTIMA,FINALIZADA,2016-01-18,09:53:00,MADALENA,RUA JANUARIO BARBOSA,232,EM FRENTE AO EDIFICIO SOLAR EÇA DE QUEIROZ,COLISÃO,COLISÃO SEM VÍTIMA,2,,,,,,,,,0,-8.050552,-34.906968
471,SEM VÍTIMA,FINALIZADA,2016-01-18,09:56:00,PARNAMIRIM,RUA LEONARDO BEZERRA CAVALCANTE,300,RUA DO PRAZA SHOPING,COLISÃO,COLISÃO SEM VITIMAS.,2,,,,,,,,,0,-8.0371193,-34.9092401
472,SEM VÍTIMA,FINALIZADA,2016-01-18,10:20:00,CORDEIRO,AV CAXANGA,,SEMAFORO  236SENT/CENTROEM FRENTE AO BRADESCO,COLISÃO,COLISÃO SEM VITIMAS ENTRE QUATRO VEICULOS.,4,,,,,,,,,0,-8.0472658,-34.9270223
473,SEM VÍTIMA,FINALIZADA,2016-01-18,10:42:00,IMBIRIBEIRA,AV MARECHAL MASCARENHAS DE MORAES,5855,EM FRENTE A AO POSTO YPIRANGA SENTIDO RECIFE,COLISÃO,COLISÃO SEM VITIMAS,3,,,,,,,,,0,-8.0987692,-34.910047
474,SEM VÍTIMA,FINALIZADA,2016-01-18,10:42:00,BOA VIAGEM,RUA PADRE CARAPUCEIRO,,NA ENTRADA DO DETRAN SAÍDA DA RIACHUELO,COLISÃO,COL.S//V DENTRO DO SHOPPING CENTER RECIFE,2,,,,,,,,,0,-8.1179232,-34.9000219
475,SEM VÍTIMA,FINALIZADA,2016-01-18,12:26:00,IPSEP,AV RECIFE,1302,PROXIMO AO MARTELINHO DE OURO,COLISÃO,ENTRE UM CAMINHÃO E UM AUTO,1,,,,,,1,,,0,-8.1187555,-34.9214115
476,COM VÍTIMA,FINALIZADA,2016-01-18,12:53:00,SÃO JOSÉ,AV GUARARAPES,,ESQUINA COM A DANTAS BARRETO E/F A PÇ. DO DIARIO SENTIDO DA VISTA SEMAFORO 015,COLISÃO,01 AUTO 01 CINQUENTINHA,1,1,,,,,,,,1,-8.0634961,-34.8789289
477,SEM VÍTIMA,FINALIZADA,2016-01-18,12:56:00,BONGI,AV ENGENHEIRO ABDIAS DE CARVALHO,,COM A RUA CRLOS GOMES NA ESQUINA DA FARMACIA PAGUE MENOS S/T CID,COLISÃO,COLISAO DE AUTO COM VEICULO DO EXERCITO,2,,,,,,,,,0,-8.0605196,-34.9257651
478,SEM VÍTIMA,FINALIZADA,2016-01-18,13:20:00,IMBIRIBEIRA,AV MARECHAL MASCARENHAS DE MORAES,,AO LADO DA LAZER ELETRO NO SEMAFORO 287,COLISÃO,COLISAO ENTRE AUTO E MOTO,1,1,,,,,,,,0,-8.1134632,-34.912731
479,COM VÍTIMA,FINALIZADA,2016-01-18,13:45:00,IMBIRIBEIRA,RUA ITAMARACA,249,PX A AUTOMOTIVA CIDERAL,COLISÃO,COLISAO ENTRE MOTO E VAM,1,1,,,,,,,,1,-8.1079326,-34.9141327
480,SEM VÍTIMA,FINALIZADA,2016-01-18,13:59:00,SÃO JOSÉ,RUA VELHA,,APOS A CASA DA CULTURA NO CAIS JOSE MARIANO NO SEMAFORO 209,COLISÃO,COLISAO DE DOIS AUTOS S/V,2,,,,,,,,,0,-8.0639404,-34.8859918
481,SEM VÍTIMA,CANCELADA,2016-01-18,14:45:00,BOA VIAGEM,RUA FELICIANO JOSE DE FARIAS,,AO LADO DO MAR HOTEL,COLISÃO,02 AUTOS,2,,,,,,,,,0,-8.1331352,-34.9047626
482,SEM VÍTIMA,FINALIZADA,2016-01-18,15:26:00,SANTO AMARO,AV CRUZ CABUGA,,PROXIMO AO TACARUNA,COLISÃO,UM ONIBUS E UM AUTO,1,,,,,1,,,,0,-8.0458417,-34.8757468
484,SEM VÍTIMA,FINALIZADA,2016-01-18,15:54:00,IBURA,AV DOIS RIOS,521,EM FRENTE AO TRAS/POSTO DA PREFEITURA,COLISÃO,ENTRE TRES VEICULOS,3,,,,,,,,,0,-8.1126945,-34.938272
485,SEM VÍTIMA,FINALIZADA,2016-01-18,16:22:00,AFLITOS,AV CONS ROSA E SILVA,,SEMAFARO 309,COLISÃO,COLISAO ENTRE AUTO E ONIBUS,1,,,,,1,,,,0,-8.0413191,-34.8982291
486,SEM VÍTIMA,FINALIZADA,2016-01-18,16:57:00,CAXANGÁ,RUA RIBEIRO PESSOA,196,PX A UPA DA CAXANGA,COLISÃO,COLISAO ENTRE AUTOS,2,,,,,,,,,0,-8.028314,-34.9573088
487,SEM VÍTIMA,FINALIZADA,2016-01-18,17:36:00,BOA VIAGEM,RUA FRANCISCO DA CUNHA,1454,E/F AO COLEGIO BEM ME QUER,COLISÃO,COLISAO ENTRE AUTOS,2,,,,,,,,,0,-8.1187955,-34.8990005
488,SEM VÍTIMA,FINALIZADA,2016-01-18,18:12:00,BOA VIAGEM,AV ARMINDO MOURA,,ENFR A GARAGEM DA BORBOREMA EM FRENTE AO METRO EMBAIXO DO VIADULTO,COLISÃO,CAMINAO BAU E AUTO,1,,,,,,1,,,0,-8.1498559,-34.910994
489,COM VÍTIMA,CANCELADA,2016-01-18,18:25:00,MADALENA,AV JOSE GONCALVES DE MEDEIROS,,PROX A ENTRADA DO EXTRA E NO POSTO DO EXTRA SEMAFORO 355,COLISÃO,MOTO E AUTO,1,1,,,,,,,,2,-8.0598291,-34.9061984
490,SEM VÍTIMA,CANCELADA,2016-01-18,18:31:00,IMBIRIBEIRA,AV MARECHAL MASCARENHAS DE MORAES,2713,EM FRENTE A IGREJA ASSEMBLEIA DE DEUS,COLISÃO,DOIS AUTO,2,,,,,,,,,0,-8.097107,-34.9099394
491,COM VÍTIMA,CANCELADA,2016-01-18,18:41:00,MADALENA,AV JOSE GONCALVES DE MEDEIROS,,EM FRENTE O EXTRA SENTIDO CIDADE,COLISÃO,AUTO E MOTO,1,1,,,,,,,,2,-8.0598291,-34.9061984
492,SEM VÍTIMA,FINALIZADA,2016-01-18,18:55:00,PINA,RUA NOGUEIRA DE SOUZA,100,APOS A PONTE DO PINA SEGUNDA RUA A ESQUERDA,COLISÃO,DOIS AUTO,2,,,,,,,,,0,-8.0855954,-34.8878496
493,SEM VÍTIMA,FINALIZADA,2016-01-18,19:02:00,BARRO,RUA DR VILAS BOAS,41,NA ENTRADA DE JARDIM UCHOA AO LADO ESQUERDO DO SEMAFORO 557,COLISÃO,AUTO E ONIBUS,1,,,,,1,,,,0,-8.0958094,-34.9397161
494,SEM VÍTIMA,CANCELADA,2016-01-18,19:09:00,IMBIRIBEIRA,AV MARECHAL MASCARENHAS DE MORAES,4900,NO POSTO SHELL ENFR A UNIBRATEC,COLISÃO,DOIS AUTO,2,,,,,,,,,0,-8.1270617,-34.9155998
495,COM VÍTIMA,FINALIZADA,2016-01-18,19:13:00,MADALENA,AV VISCONDE DE ALBUQUERQUE,,EM FRENTE O BOMPREÇO DA BEMFICA,ATROPELAMENTO,AUTO E PEDESTRE,1,,,,,,,,,1,-8.0535603,-34.9067618
496,COM VÍTIMA,FINALIZADA,2016-01-18,19:23:00,BOA VIAGEM,RUA ANTONIO FALCAO,,COM A NAVEGANTES,COLISÃO,AUTO E MOTO,1,1,,,,,,,,1,-8.1148235,-34.897323
497,SEM VÍTIMA,FINALIZADA,2016-01-18,20:15:00,PRADO,AV ENGENHEIRO ABDIAS DE CARVALHO,,SEMAFORO 354,COLISÃO,ONIBUS BORBOREMA E AUTO,1,,,,,1,,,,0,-8.0623623,-34.91745
498,SEM VÍTIMA,FINALIZADA,2016-01-18,20:23:00,ILHA DO LEITE,RUA JOSE DE ALENCAR,522,EM FRENTE AO HOSPITAL UNIMED 3,COLISÃO,DOIS AUTO,2,,,,,,,,,0,-8.0629998,-34.8901179
499,SEM VÍTIMA,CANCELADA,2016-05-01,00:13:00,DOIS UNIDOS,RUA URIEL DE HOLANDA,,CRUZAMENTO COM RUA DELBRANDO VASCONCELOS // ENTRADA DE DOIS UNIDOS // PRÓX A PRAÇA DA CONVENÇÃO,COLISÃO,1,,,,,1,,,,0,,-8.0031505,-34.898225
500,SEM VÍTIMA,FINALIZADA,2016-05-01,00:32:00,BOA VIAGEM,RUA MAMANGUAPE,,CRUZAMENTO COM A CONSELHEIRO AGUIAR // AO LADO DO BANCO BRADESCO,COLISÃO,2,,,,,,,,,0,,-8.1159545,-34.8972457
501,SEM VÍTIMA,FINALIZADA,2016-05-01,01:51:00,DERBY,PRC DO DERBY,,PRAÇA DO DERBY // PRÓX AO BRAIVIM,COLISÃO,2,,,,,,,,,0,,-8.0566717,-34.8994452
502,COM VÍTIMA,FINALIZADA,2016-05-01,02:54:00,VÁRZEA,RUA FRANCISCO LEOPOLDINO,,PRÓXIMO A PE 05 PRÓXIMO AO POSTO DISLUB,COLISÃO,1,,,,,,,1,,2,,-8.0267102,-34.9634599
503,SEM VÍTIMA,FINALIZADA,2016-05-01,03:49:00,BOA VISTA,AV OLIVEIRA LIMA,841,EM FRENTE A IGREJA DO COLÉGIO NÓBREGA // IGREJA DA SOLEDADE,COLISÃO,2,,,,,,,,,0,,-8.0572267,-34.8876579
504,COM VÍTIMA,FINALIZADA,2016-05-01,06:22:00,AREIAS,AV DR JOSE RUFINO,,CRUZ  COM A DR VILAS BOAS  EM BAIXO DO SEMAFORO 557,COLISÃO,,1,,,,1,,,,1,,-8.0899501,-34.9342698
505,SEM VÍTIMA,FINALIZADA,2016-05-01,08:46:00,BOA VISTA,RUA PRINCESA IZABEL,,CRUZ  COM A RUA DA AURORA E/F  AO HOTEL  MONTE SINAIS,COLISÃO,2,,,,,,,,,0,,-8.0585845,-34.8814409
506,SEM VÍTIMA,FINALIZADA,2016-05-01,10:19:00,BAIRRO DO RECIFE,RUA VIGARIO TENORIO,,,,,,,,,,,,,0,,-8.0639234,-34.8727833
507,COM VÍTIMA,FINALIZADA,2016-05-01,10:29:00,ENGENHO DO MEIO,RUA ANTONIO CURADO,80,SENT ENGENHO DO MEIO / PROX A CICLOVIA,COLISÃO,1,1,,,,,,,,1,,-8.0546978,-34.9418237
508,SEM VÍTIMA,FINALIZADA,2016-05-01,10:39:00,BOA VIAGEM,RUA JOAO CARDOSO AIRES,,E/F AO COÉGIO MADRE DE DEUS. (SEMÁFORO Nº 478) LADO DIREITO DA VIA,COLISÃO,2,,,,,,,,,0,,-8.1416581,-34.9099297
509,SEM VÍTIMA,FINALIZADA,2016-05-01,10:52:00,DERBY,AV GOVERNADOR AGAMENON MAGALHAES,,EM FRENTE AO BRADESCO,QUEDA DE ÁRVORE,,,,,,,,,,0,,-8.056982,-34.8977316
510,SEM VÍTIMA,FINALIZADA,2016-05-01,11:36:00,IPSEP,AV RECIFE,,,ENGAVETAMENTO,3,,,,,,,,,0,,-8.1116174,-34.9264765
511,COM VÍTIMA,FINALIZADA,2016-05-01,11:54:00,IMBIRIBEIRA,AV MARECHAL MASCARENHAS DE MORAES,1854,E/F A HONDA - SENT AEROPORTO,ATROPELAMENTO,1,,,,1,,,,,2,,-8.10745,-34.9116836
512,COM VÍTIMA,FINALIZADA,2016-05-01,12:18:00,BOA VISTA,AV CONDE DA BOA VISTA,,SEMAFARO 023,COLISÃO,,1,,,,1,,,,1,,-8.058511,-34.8883829
513,SEM VÍTIMA,FINALIZADA,2016-05-01,12:24:00,BOA VIAGEM,AV CONSELHEIRO AGUIAR,,PX A INFO HOUSE / PARADA DE ONIBUS 10,COLISÃO,1,,,,,1,,,,0,,-8.1109937,-34.8914817
514,SEM VÍTIMA,FINALIZADA,2016-05-01,12:43:00,AFLITOS,AV CONS ROSA E SILVA,,EM FRENTE AO CLUBE DO NAUTICO,COLISÃO,2,,,,,,,,,0,,-8.0413191,-34.8982291
515,SEM VÍTIMA,CANCELADA,2016-05-01,12:48:00,BOA VIAGEM,RUA VISCONDE DE JEQUITINHONHA,,SEMAFORO 158 SENTIDO PIEDADE LADO ESQUERDO.,COLISÃO,2,,,,,,,,,0,,-8.1384247,-34.9043899
516,COM VÍTIMA,FINALIZADA,2016-05-01,13:54:00,PRADO,AV ENGENHEIRO ABDIAS DE CARVALHO,1079,E/F A GRAN VIA,COLISÃO,1,1,,,,,,,,1,,-8.0624742,-34.9100209
517,SEM VÍTIMA,FINALIZADA,2016-05-01,15:33:00,BOA VIAGEM,RUA COPACABANA,,NO TERMINAL DOS ÔNIBUS DE SETUBAL,COLISÃO,1,1,,,,,,,,0,,-8.1368218,-34.9114864
519,SEM VÍTIMA,EM ATENDIMENTO,2016-05-01,16:33:00,CAXANGÁ,AV CAXANGA,892,EM FRENTE DA FARMACIA REDEMED,COLISÃO,2,,,,,,,,,0,,-8.0527599,-34.9163531
520,SEM VÍTIMA,EM ATENDIMENTO,2016-05-01,16:50:00,TORRÕES,AV ENGENHEIRO ABDIAS DE CARVALHO,,PX AO GALETOS YOKI - DENTRO DO POSTO PETROCAL - SENT INTERIOR,COLISÃO,2,,,,,,,,,0,,-8.0618728,-34.9304544
521,SEM VÍTIMA,FINALIZADA,2016-05-01,17:42:00,BOA VIAGEM,RUA DR GASPAR REGUEIRA COSTA,,PX AO COLEGIO SANTOS DUMONT,COLISÃO,2,,,,,,,,,0,,-8.1274954,-34.9085449
522,SEM VÍTIMA,FINALIZADA,2016-05-01,18:29:00,CORDEIRO,RUA CLAUDIO BROTHERHOOD,126,CRUZAMENTO COM CONSELHEIRO SILVEIRA SOUZA NA ESQUINA DO COLEGIO SANCARLUS,COLISÃO,2,,,,,,,,,0,,-8.0476746,-34.9284689
523,SEM VÍTIMA,FINALIZADA,2016-05-01,19:55:00,CAXANGÁ,RUA MINISTRO JOAO ALBERTO,,CRUZAMENTO COM AV CAXANGA SEMAFORO 231 EM FRENTE A FIAT SENTIDO RECIFE,ENGAVETAMENTO,3,,,,,,,,,0,,-8.0326363,-34.944477
524,SEM VÍTIMA,EM ATENDIMENTO,2016-05-01,22:29:00,IPSEP,RUA PINTOR ANTONIO ALBUQUERQUE,,CRUZAMENTO COM HELIO BRANDÃO PROX. AO POSTO SHELL,ENGAVETAMENTO,,,,,,,,,,0,,-8.1075661,-34.924527
525,SEM VÍTIMA,FINALIZADA,2016-05-02,00:09:00,IPSEP,AV SALDANHA MARINHO,309,PROX DA DELEGACIA DE IPSEP PROX A INTERVALO LANCHES,COLISÃO,2,,,,,,,,,0,,-8.1150168,-34.9200429
526,SEM VÍTIMA,FINALIZADA,2016-05-02,06:09:00,CAMPO GRANDE,RUA ODORICO MENDES,,PROX. AO IC,CHOQUE,,,,,,,,,,0,,-8.0355037,-34.8804798
527,SEM VÍTIMA,FINALIZADA,2016-05-02,06:23:00,TOTÓ,RUA ONZE DE AGOSTO,685,EM FRENTE AO FERRO VELHO DO RUBENS,CHOQUE,1,,,,,,,,,0,,-8.0777193,-34.9712986
528,SEM VÍTIMA,CANCELADA,2016-05-02,07:08:00,GRAÇAS,AV RUI BARBOSA,,E/F AO BANCO SANTANDE LADO DIREITO. SENTIDO CIDADE.,COLISÃO,1,,,,,1,,,,0,,-8.0466582,-34.9012379
529,SEM VÍTIMA,FINALIZADA,2016-05-02,07:38:00,IMBIRIBEIRA,AV MARECHAL MASCARENHAS DE MORAES,,,COLISÃO,4,,,,,,,,,0,,-8.1134632,-34.912731
530,SEM VÍTIMA,FINALIZADA,2016-05-02,07:46:00,MADALENA,AV ENGENHEIRO ABDIAS DE CARVALHO,480,E/F A CLÍNICA MULTI RIM NO LADO DIREITO DA VIA. SENTIDO CENTRO.,COLISÃO,1,1,,,,,,,,0,,-8.0618187,-34.9091832
531,SEM VÍTIMA,CANCELADA,2016-05-02,07:59:00,MADALENA,AV ENGENHEIRO ABDIAS DE CARVALHO,,EM FRENTE A SUBWAY,COLISÃO,1,1,,,,,,,,0,,-8.0616138,-34.9212462
532,SEM VÍTIMA,FINALIZADA,2016-05-02,08:09:00,IBURA,AV DOIS RIOS,1347,,COLISÃO,2,,,,,,,,,0,,-8.1187292,-34.9423718
533,SEM VÍTIMA,FINALIZADA,2016-05-02,08:24:00,BOA VIAGEM,AV CONSELHEIRO AGUIAR,3743,AO LADO  DA ACADEMIA   HI,COLISÃO,1,,,,,1,,,,0,,-8.1213084,-34.8975735
534,SEM VÍTIMA,FINALIZADA,2016-05-02,08:28:00,BOA VIAGEM,RUA ERNESTO DE PAULA SANTOS,,EM FRENTE AO HABIBS,COLISÃO,2,,,,,,,,,0,,-8.1241399,-34.9033405
535,SEM VÍTIMA,FINALIZADA,2016-05-02,08:31:00,AFLITOS,RUA ANGUSTURA,220,E/F  AO  EDIFICIO  ANGUSTURA,COLISÃO,2,,,,,,,,,0,,-8.0417571,-34.8959395
536,SEM VÍTIMA,FINALIZADA,2016-05-02,08:38:00,DERBY,RUA DAS CREOULAS,,EM FRENTE A FARMACIA QUATRO CANTOS,COLISÃO,2,,,,,,,,,0,,-8.0517511,-34.89914
537,SEM VÍTIMA,CANCELADA,2016-05-02,08:54:00,BOA VIAGEM,AV CONSELHEIRO AGUIAR,3743,EM FRENTE AO EDF MATER,COLISÃO,1,,,,,1,,,,0,,-8.1213084,-34.8975735
538,SEM VÍTIMA,FINALIZADA,2016-05-02,08:58:00,CASA AMARELA,RUA PAULA BATISTA,,NO SEMÁFORO Nº 283 NO LADO DIREITO DA VIA.,COLISÃO,1,,,,,1,,,,0,,-8.0264878,-34.9160401
539,SEM VÍTIMA,CANCELADA,2016-05-02,09:43:00,CASA AMARELA,RUA NOVA DESCOBERTA,,NO SEMÁFORO Nº 065 SENTIDO MACAXEIRA.,COLISÃO,1,1,,,,,,,,0,,-8.0104152,-34.9243701
540,SEM VÍTIMA,FINALIZADA,2016-05-02,09:43:00,SANTO AMARO,AV CRUZ CABUGA,,AO LADO DA VICE GOVERNADORIA,COLISÃO,3,,,,,,,,,0,,-8.0458417,-34.8757468
541,SEM VÍTIMA,FINALIZADA,2016-05-02,10:28:00,PAISSANDU,RUA PAISSANDU,,E/F  AO COLEGIO  GGE,COLISÃO,1,,,,,1,,,,0,,-8.0620223,-34.8971463
542,COM VÍTIMA,FINALIZADA,2016-05-02,11:43:00,BOA VIAGEM,RUA VISCONDE DE JEQUITINHONHA,,POR TRAZ DO PARQUE DONA LINDU  PRÓXIMO AO POSTO SHELL,COLISÃO,2,,,,,,,,,1,,-8.1384247,-34.9043899
543,SEM VÍTIMA,FINALIZADA,2016-05-02,12:10:00,ENGENHO DO MEIO,AV VISCONDE DE SAO LEOPOLDO,,RUA DO CEFET SENTIDO BR 101,COLISÃO,1,,,,,,1,,,0,,-8.0560716,-34.9461635
544,SEM VÍTIMA,FINALIZADA,2016-05-02,12:45:00,PARNAMIRIM,RUA DA ESTRELA,77,E/F AO PÃO DO AÇUCAR,COLISÃO,1,1,,,,,,,,0,,-8.0309446,-34.9093032
545,COM VÍTIMA,FINALIZADA,2016-05-02,12:46:00,BOA VIAGEM,RUA VISCONDE DE JEQUITINHONHA,,CRUZ  RUA BALTAZAR PASSOS,COLISÃO,2,,,,,,,,,1,,-8.1384247,-34.9043899
546,SEM VÍTIMA,FINALIZADA,2016-05-02,13:46:00,TAMARINEIRA,AV PARNAMIRIM,,E/F DO POSTO SHEL NO SEMAFORO 010 S/T CID,COLISÃO,3,,,,,,,,,0,,-8.0339784,-34.9092795
547,SEM VÍTIMA,FINALIZADA,2016-05-02,13:59:00,MADALENA,RUA CONDE DE IRAJA,,PRÓXIMO AO EXTRA BOM SENTIDO CIDADE,COLISÃO,2,,,,,,,,,0,,-8.0462257,-34.9088014
548,SEM VÍTIMA,FINALIZADA,2016-05-02,14:01:00,IMBIRIBEIRA,AV MARECHAL MASCARENHAS DE MORAES,,RAMPA DE ACESSO PARA  O PISO SUPERIOR,COLISÃO,2,,,,,,,,,0,,-8.1134632,-34.912731
549,COM VÍTIMA,FINALIZADA,2016-05-02,14:21:00,SANTO AMARO,AV MARIO MELO,,E/F A ESCOLA SIVEIRA RABELO,COLISÃO,1,,,,,,,,,1,,-8.0550302,-34.8798191
550,SEM VÍTIMA,CANCELADA,2016-05-02,14:24:00,TORRE,RUA JOSE BONIFACIO,1141,E/F AO EDF ACÁCIA SENTIDO ADBIAS DE CARVALHO APÓS VD DO CARREFOUR.,COLISÃO,2,,,,,,,,,0,,-8.0410414,-34.9088308
551,COM VÍTIMA,CANCELADA,2016-05-02,14:36:00,SANTO AMARO,AV MARIO MELO,,AO LADO DO TRIBUNAL DE CONTAS SENTIDO CEMITERIO DE SANTO AMARO,COLISÃO,1,1,,,,,,,,1,,-8.0550302,-34.8798191
